Commune,EPCI,Département,Région,Code commune,Statut de la commune,Signée ?,"Si signée, date de signature","Si non signée, date de signature envisagée",Durée (en années),Date de fin estimée,Remarques,Avancement,ACV,PVD,longitude,latitude,Dernière actualisation,Actualisé par
29 - Brest,Brest Métropole,Finistère,Bretagne,29019,3. Autre,Signée,2020-06-23,,0,,Métropole avec NPNRURencontre DDTM / services techniques en juillet et septembre 2019 pour présentation de la procédure. Puis conseil DDTM et préfecture pour finaliser le dossier de demande. Convention signée,,false,false,-4.50207764872949,48.4003141952789,18-04-2023 10:28,CENSORED
28 - Dreux,CA Agglo du Pays de Dreux,Eure-et-Loir,Centre-Val de Loire,28134,1. Commune ACV,Signée,2019-12-13,,0,,Convention Inter-régionale- Convention ACV homologuée en ORT  le 4 octobre 2019 par arrêté préfectoral. Avenant à la convention signé le 13 décembre 2019. Convention ACV 2 intégrant de nouveaux périmètre signée le 20/12/2023 jusqu'au 31/12/2026,,true,false,1.35954380054993,48.7484600461999,06-05-2025 10:30,CENSORED
27 - Nonancourt,CA Agglo du Pays de Dreux,Eure,Normandie,27438,2. Commune PVD,Signée,2023-02-20,,3,20-02-2026,Convention Inter-régionale Convention d’adhésion PVD signée le 21/04/21Convention Inter-régionale,,false,true,1.17815995581674,48.7776599881997,27-06-2023 14:13,CENSORED
27 - Ézy-sur-Eure,CA Agglo du Pays de Dreux,Eure,Normandie,27230,2. Commune PVD,Signée,2023-02-20,,3,20-02-2026,Convention Inter-régionale  Convention d’adhésion PVD signée le 21/04/21,,false,true,1.41320678679983,48.8710953511787,27-06-2023 14:14,CENSORED
27 - Ivry-la-Bataille,CA Agglo du Pays de Dreux,Eure,Normandie,27355,2. Commune PVD,Signée,2023-02-20,,3,20-02-2026,Convention Inter-régionale Convention d’adhésion PVD signée le 21/04/21,,false,true,1.44639790127123,48.8865984939785,27-06-2023 14:14,CENSORED
28 - Saint-Lubin-des-Joncherets,CA Agglo du Pays de Dreux,Eure-et-Loir,Centre-Val de Loire,28348,2. Commune PVD,En cours,,2e trimestre 2025,0,,Doit rejoindre l'ORT fin 2023 ou début 2024,Phase d'étude,false,true,1.18792607396755,48.7512617082423,06-05-2025 10:33,CENSORED
28 - Brezolles,CA Agglo du Pays de Dreux,Eure-et-Loir,Centre-Val de Loire,28059,2. Commune PVD,Signée,2025-03-18,,6,18-03-2031,convention sectorielle,Phase opérationnelle,false,true,1.06356352213875,48.6888378130373,19-03-2025 16:03,CENSORED
28 - Châteauneuf-en-Thymerais,CA Agglo du Pays de Dreux,Eure-et-Loir,Centre-Val de Loire,28089,2. Commune PVD,Non signée,,3e trimestre 2025,0,,Signature envisagée début 2024,Phase d'étude,false,true,1.2377175139212,48.5889221807686,19-03-2025 16:02,CENSORED
28 - Tremblay-les-Villages,CA Agglo du Pays de Dreux,Eure-et-Loir,Centre-Val de Loire,28393,2. Commune PVD,Signée,2025-03-18,,6,18-03-2031,convention sectorielle,Phase opérationnelle,false,true,1.35850296550222,48.5901401574222,19-03-2025 16:03,CENSORED
28 - Vernouillet,CA Agglo du Pays de Dreux,Eure-et-Loir,Centre-Val de Loire,28404,3. Autre,Signée,2023-12-20,,3,20-12-2026,Avenant ACV de la ville de Dreux incluant l'entrée de ville située sur la commune limitrophe de Vernouillet qui a signé l'avenant ACV/ORT. entrée en vigueur au 1er janvier 2024 jusqu'au 31/12/2026,Phase d'étude,false,false,1.35017838171393,48.7201917059798,06-05-2025 10:29,CENSORED
63 - Champeix,CA Agglo Pays d'Issoire,Puy-de-Dôme,Auvergne-Rhône-Alpes,63080,2. Commune PVD,Signée,2023-01-17,,0,,ORT avec Issoire,,false,true,3.12807968477381,45.5843214866769,26-01-2023 11:10,CENSORED
63 - Saint-Germain-Lembron,CA Agglo Pays d'Issoire,Puy-de-Dôme,Auvergne-Rhône-Alpes,63352,2. Commune PVD,Signée,2023-01-17,,0,,ORT avec Issoire,,false,true,3.24364454042731,45.4528456613631,26-01-2023 11:10,CENSORED
63 - Ardes,CA Agglo Pays d'Issoire,Puy-de-Dôme,Auvergne-Rhône-Alpes,63009,2. Commune PVD,Signée,2023-01-17,,0,,ORT avec Issoire,,false,true,3.11683132656981,45.3986110805317,26-01-2023 11:11,CENSORED
63 - Sauxillanges,CA Agglo Pays d'Issoire,Puy-de-Dôme,Auvergne-Rhône-Alpes,63415,2. Commune PVD,Signée,2023-01-17,,0,,ORT avec Issoire,,false,true,3.37261005918698,45.563463883058,26-01-2023 11:11,CENSORED
63 - Issoire,CA Agglo Pays d'Issoire,Puy-de-Dôme,Auvergne-Rhône-Alpes,63178,1. Commune ACV,Signée,2019-10-07,,0,,Avenant de fin de phase d’initialisation signé,,true,false,3.24451790489673,45.5456269527655,09-12-2022 14:13,CENSORED
63 - Brassac-les-Mines,CA Agglo Pays d'Issoire,Puy-de-Dôme,Auvergne-Rhône-Alpes,63050,2. Commune PVD,Signée,2023-01-17,,0,,ORT avec Issoire,,false,true,3.32078519517817,45.4202365175826,26-01-2023 11:11,CENSORED
47 - Astaffort,CA Agglomération d'Agen,Lot-et-Garonne,Nouvelle-Aquitaine,47015,2. Commune PVD,Signée,2023-01-27,4e trimestre 2022,5,27-01-2028,communes pôle de proximité intégrée à l’ORT existante comprenant la ville ACV d’Agen. ,Phase opérationnelle,false,true,0.658042186546751,44.0648124362679,26-09-2023 16:26,CENSORED
47 - Moirax,CA Agglomération d'Agen,Lot-et-Garonne,Nouvelle-Aquitaine,47169,3. Autre,Signée,2023-01-27,4e trimestre 2022,5,27-01-2028,communes pôle de proximité intégrée à l’ORT existante comprenant la ville ACV d’Agen. ,Phase opérationnelle,false,false,0.607940206754178,44.1397266854999,26-09-2023 16:27,CENSORED
47 - Agen,CA Agglomération d'Agen,Lot-et-Garonne,Nouvelle-Aquitaine,47001,1. Commune ACV,Signée,2019-11-14,,5,14-11-2024,"Homologation ORT par arrêté préfectoral, avenant de fin d’initialisation transmis pour consultation du comité régional d’engagement en décembre 2021. Avis transmis fin décembre. Signature de l’avenant ACV/ORT le 24 mars 2021. Second avenant intégrant 2 autres communes (Astaffort et Moirax) signé le 27 janvier 2023",Phase opérationnelle,true,false,0.625410912117271,44.2024639530471,26-09-2023 16:28,CENSORED
49 - Cholet,CA Agglomération du Choletais,Maine-et-Loire,Pays de la Loire,49099,1. Commune ACV,Signée,2024-06-18,,5,18-06-2029,"Avenant ORT signé le 01/02/23 (modification mineure sur le secteur gare). En plus de la ville ACV, l’EPCI comprend une commune nouvelle PVD. Le périmètre ORT devra évoluer pour intégrer ce périmètre.Convention ORT Chapeau signée le 18/06/2024.",Phase opérationnelle,true,false,-0.877077243179417,47.0462619687504,18-06-2024 17:45,CENSORED
49 - Lys-Haut-Layon,CA Agglomération du Choletais,Maine-et-Loire,Pays de la Loire,49373,2. Commune PVD,Signée,2024-06-18,,5,18-06-2029,Convention PVD signée le 02/02/2023. Elle sera annexée à la convention ORT de l'agglomération de Cholet dès qu'elle sera signée (3ème trimestre 2023).,Phase opérationnelle,false,true,-0.471320121287212,47.1391884026197,18-06-2024 17:44,CENSORED
30 - Anduze,CA Alès Agglomération,Gard,Occitanie,30010,2. Commune PVD,Signée,2023-07-27,,5,27-07-2028,OPAH-RU en cours,Phase opérationnelle,false,true,3.97502352849355,44.0509034895658,09-07-2024 14:20,CENSORED
30 - Alès,CA Alès Agglomération,Gard,Occitanie,30007,1. Commune ACV,Signée,2019-07-24,,9,24-07-2028,durée prolongée de 5 ans à compter du 27/07/2023,Phase opérationnelle,true,false,4.08897127401649,44.1260853527464,07-01-2025 09:48,CENSORED
30 - Saint-Jean-du-Gard,CA Alès Agglomération,Gard,Occitanie,30269,2. Commune PVD,Signée,2023-07-27,,5,27-07-2028,,Phase opérationnelle,false,true,3.87781904951608,44.1072279365104,09-07-2024 14:20,CENSORED
30 - La Grand-Combe,CA Alès Agglomération,Gard,Occitanie,30132,2. Commune PVD,Signée,2023-07-27,,5,27-07-2028,,Phase opérationnelle,false,true,4.02991447604806,44.2279310740875,09-07-2024 14:20,CENSORED
30 - Saint-Hilaire-de-Brethmas,CA Alès Agglomération,Gard,Occitanie,30259,2. Commune PVD,Signée,2023-07-27,,5,27-07-2028,,Phase opérationnelle,false,true,4.12331883385435,44.0923052947491,09-07-2024 14:20,CENSORED
74 - Annemasse,CA Annemasse-les Voirons-Agglomération,Haute-Savoie,Auvergne-Rhône-Alpes,74012,1. Commune ACV,Signée,2025-04-17,,1,17-04-2026,convention ACV portant ORT,Phase opérationnelle,true,false,6.24291716775952,46.1909599127954,29-07-2025 13:46,CENSORED
07 - Annonay,CA Annonay Rhône Agglo,Ardèche,Auvergne-Rhône-Alpes,07010,1. Commune ACV,Signée,2019-04-24,,0,,,,true,false,4.650278954914,45.2462595030873,09-12-2022 14:13,CENSORED
07 - Saint-Félicien,CA Arche Agglo,Ardèche,Auvergne-Rhône-Alpes,07236,3. Autre,Signée,2021-02-19,,0,,"ORT commune sur 3 communes (Tain-l’Hermitage, Tournon-sur-Rhône et Sain-Félicien) situées sur 2 départements (Drôme et Ardèche), en lien avec l’OPAH RU => suivie par la DDT 07 ; en cours de signature",,false,false,4.61091916700106,45.0774680791417,09-12-2022 14:13,CENSORED
07 - Tournon-sur-Rhône,CA Arche Agglo,Ardèche,Auvergne-Rhône-Alpes,07324,2. Commune PVD,Signée,2021-02-19,,0,,"ORT commune sur 3 communes (Tain-l’Hermitage, Tournon-sur-Rhône et Sain-Félicien) situées sur 2 départements (Drôme et Ardèche), en lien avec l’OPAH RU => suivie par la DDT 07 ; en cours de signature",,false,true,4.81564111958545,45.0535588083966,28-03-2025 15:10,CENSORED
26 - Tain-l'Hermitage,CA Arche Agglo,Drôme,Auvergne-Rhône-Alpes,26347,3. Autre,Signée,2021-02-19,,0,,,,false,false,4.85132468291854,45.070563565263,09-12-2022 14:13,CENSORED
26 - Saint-Donat-sur-l'Herbasse,CA Arche Agglo,Drôme,Auvergne-Rhône-Alpes,26301,2. Commune PVD,En cours,,,0,,,,false,true,4.98417585899129,45.1262050077435,19-02-2024 16:22,CENSORED
08 - Vrigne aux Bois,CA Ardenne Métropole,Ardennes,Grand Est,08491,2. Commune PVD,En cours,,08/02/2024,0,,"Convention ORT signée le 29 juin 2020 sur un périmètre limité dans un premier temps aux 2 communes ACV (Charleville-Mézières et Sedan) avec la volonté d’étendre ensuite la démarche sur les communes de Nouzonville, et Vrigne aux Bois (PVD). Signature de la convention cadre PVD et de l'avenant ORT pour les 2 communes prévues le 08/02/2024.",,false,true,4.86419861524436,49.7532302964913,07-02-2024 17:17,CENSORED
08 - Vivier-au-Court,CA Ardenne Métropole,Ardennes,Grand Est,08488,3. Autre,Non signée,,,0,,"Convention ORT signée le 29 juin 2020 sur un périmètre limité dans un premier temps aux 2 communes ACV (Charleville-Mézières et Sedan) avec la volonté d’étendre ensuite la démarche sur les communes de Nouzonville, Vrigne aux Bois (PVD), voire Vivier-au-Court.",,false,false,4.82328715198354,49.7320864077881,09-12-2022 14:13,CENSORED
08 - Nouzonville,CA Ardenne Métropole,Ardennes,Grand Est,08328,2. Commune PVD,En cours,,08/02/2024,0,,"Convention ORT signée le 29 juin 2020 sur un périmètre limité dans un premier temps aux 2 communes ACV (Charleville-Mézières et Sedan) avec la volonté d’étendre ensuite la démarche sur les communes de Nouzonville, Vrigne aux Bois (PVD), voire Vivier-au-Court. Signature de la convention cadre PVD et de l'avenant ORT pour les 2 communes prévues le 08/02/2024.",,false,true,4.76125780089643,49.8174259938852,07-02-2024 17:17,CENSORED
08 - Charleville-Mézières,CA Ardenne Métropole,Ardennes,Grand Est,08105,1. Commune ACV,Signée,2020-06-29,,0,,"Convention ORT signée le 29 juin 2020 sur un périmètre limité dans un premier temps aux 2 communes ACV (Charleville-Mézières et Sedan) avec la volonté d’étendre ensuite la démarche sur les communes de Nouzonville, Vrigne aux Bois (PVD), voire Vivier-au-Court.",,true,false,4.71733522181124,49.7749338390586,09-12-2022 14:13,CENSORED
08 - Sedan,CA Ardenne Métropole,Ardennes,Grand Est,08409,1. Commune ACV,Signée,2020-06-29,,0,,"Convention ORT signée le 29 juin 2020 sur un périmètre limité dans un premier temps aux 2 communes ACV (Charleville-Mézières et Sedan) avec la volonté d’étendre ensuite la démarche sur les communes de Nouzonville, Vrigne aux Bois (PVD), voire Vivier-au-Court.",,true,false,4.92951200553947,49.6965719526847,09-12-2022 14:13,CENSORED
08 - Saint-Aignan,CA Ardenne Métropole,Ardennes,Grand Est,08377,3. Autre,,,,0,,,,false,false,4.85233801279119,49.6556817407602,08-09-2023 17:06,CENSORED
73 - Ugine,CA Arlysère,Savoie,Auvergne-Rhône-Alpes,73303,2. Commune PVD,Signée,2023-07-03,,0,,Commune PVD (chapeau avec Albertville),Achevé ,false,true,6.43281194314059,45.7722947478496,16-11-2023 08:25,CENSORED
73 - Albertville,CA Arlysère,Savoie,Auvergne-Rhône-Alpes,73011,2. Commune PVD,Signée,2023-07-11,,0,,Convention avec chapeau commun Ugine. Signature prévue le 11 juillet 2023,Achevé ,false,true,6.40351652694298,45.6681066727855,16-11-2023 08:32,CENSORED
71 - Chagny,"CA Beaune, Côte et Sud - Communauté Beaune-Chagny-Nolay",Saône-et-Loire,Bourgogne-Franche-Comté,71073,2. Commune PVD,Signée,2023-07-06,,9,06-07-2032,Convention cadre PVD valant ORT sur CA Beaune Cote Sud (avec Beaune),,false,true,4.77440879651204,46.8988904102865,18-09-2023 15:35,CENSORED
21 - Beaune,"CA Beaune, Côte et Sud - Communauté Beaune-Chagny-Nolay",Côte-d'Or,Bourgogne-Franche-Comté,21054,3. Autre,Signée,2023-07-06,,6,06-07-2029,,,false,false,4.83748262082726,47.0255634981066,09-10-2023 12:06,CENSORED
21 - Nolay,"CA Beaune, Côte et Sud - Communauté Beaune-Chagny-Nolay",Côte-d'Or,Bourgogne-Franche-Comté,21461,3. Autre,Signée,2023-07-06,,6,06-07-2029,,,false,false,4.61956013462502,46.959242545824,09-10-2023 12:07,CENSORED
24 - Bergerac,CA Bergeracoise,Dordogne,Nouvelle-Aquitaine,24037,1. Commune ACV,Signée,2021-03-19,,0,,,,true,false,0.486619617774647,44.8547225449943,09-12-2022 14:13,CENSORED
18 - Bourges,CA Bourges Plus,Cher,Centre-Val de Loire,18033,1. Commune ACV,Signée,2019-12-24,,0,,"homologuée le 24/12/2019
avenant ORT prévu sept. 2021.
Mise à jour du 16/11/2023: signature avenant convention ACV 2 programmée le 22/12/2023 avec signature convention ORT EPCI Bourges Plus qui concerne les villes de Bourges (ACV) & de Mehun-sur-Yèvre (PVD). Le périmètre ORT de la ville de Bourges sera modifié avec ajout de 3 ilots habitat et 1 zone secteur gare.",avenant ACV2 à signer en décembre 2024,true,false,2.40442603363154,47.0750053888228,16-11-2023 16:28,CENSORED
18 - Mehun-sur-Yèvre,CA Bourges Plus,Cher,Centre-Val de Loire,18141,2. Commune PVD,Signée,2023-12-20,,5,20-12-2028,liée avec ACV 2 Bourges plus,,false,true,2.22032820592075,47.1359109690805,09-07-2024 16:36,CENSORED
971 - Pointe-à-Pitre,CA Cap Excellence,Guadeloupe,Guadeloupe,97120,1. Commune ACV,Signée,2021-03-18,,0,,"L’avenant à la convention- cadre Acv a été signé le 18 mars 2021 et  intègre un périmètre ACV identique au périmètre Ort. Cependant, un périmètre de réflexion est arrêté qui concerne tout le territoire de la commune.  Elle envisage de recruter un(e)  manager (euse) de centre-ville et un(e) chef(fe) de projet ACV-ORT.

Malgré plusieurs candidatures examinées, Point-à-Pitre n’a toujours pas de chef de projet dédié à la conduite du programme",Phase opérationnelle,true,false,-61.5362052582723,16.23967309131,09-12-2022 14:13,CENSORED
971 - Les Abymes,CA Cap Excellence,Guadeloupe,Guadeloupe,97101,1. Commune ACV,Signée,2021-03-18,,0,,"L’avenant à la convention- cadre Acv a été signé le 18 mars 2021 et  intègre un périmètre ACV identique au périmètre Ort. Cependant, un périmètre de réflexion un peu plus large est arrêté. Il  s’agit de la zone urbaine de Boisripeaux, du secteur de Bazin contigu au coeur de ville  et de Nérée.",Phase opérationnelle,true,false,-61.5016510567439,16.2727994859031,09-12-2022 14:13,CENSORED
971 - Baie-Mahault,CA Cap Excellence,Guadeloupe,Guadeloupe,97103,3. Autre,Signée,2021-03-18,,0,,La convention Ort multisites portée conjointement par la Communauté d’agglo (Cap excellence)  et les 3 villes dont celle de Baie-Mahault  a été signée le 18 mars 2021  qui intègre pour Baie-Mahault  un périmètre Ort ainsi qu’un autre un peu plus large de réflexion.,Phase opérationnelle,false,false,-61.5920211291475,16.2516879965815,09-12-2022 14:13,CENSORED
11 - Rieux-Minervois,CA Carcassonne Agglo,Aude,Occitanie,11315,2. Commune PVD,Signée,2024-11-05,,0,,,,false,true,2.59088191558515,43.2689976768892,06-11-2024 17:28,CENSORED
11 - Trèbes,CA Carcassonne Agglo,Aude,Occitanie,11397,2. Commune PVD,Signée,2024-11-05,,0,,,,false,true,2.45960815853297,43.2053562815524,06-11-2024 17:28,CENSORED
11 - Carcassonne,CA Carcassonne Agglo,Aude,Occitanie,11069,1. Commune ACV,Signée,2021-02-22,,0,,,,true,false,2.34289499652174,43.2094693553968,09-12-2022 14:13,CENSORED
76 - Rives-en-Seine,CA Caux Seine Agglo,Seine-Maritime,Normandie,76164,2. Commune PVD,Signée,2020-01-24,,5,24-01-2025,date fin 31/12/2026 - avenant signé le 04/01/2024 ,,false,true,0.731069403202299,49.5227322804094,30-04-2025 17:03,CENSORED
76 - Terres-de-Caux,CA Caux Seine Agglo,Seine-Maritime,Normandie,76258,2. Commune PVD,Signée,2020-01-24,,5,24-01-2025,date fin 31/12/2026 - avenant signé le 04/01/2024 ,,false,true,0.598086344380857,49.6528137443368,30-04-2025 17:03,CENSORED
76 - Gruchet-le-Valasse,CA Caux Seine Agglo,Seine-Maritime,Normandie,76329,2. Commune PVD,Signée,2020-01-24,,5,24-01-2025,date fin 31/12/2026 - avenant signé le 04/01/2024 ,,false,true,0.514013772257104,49.5501830699366,30-04-2025 17:03,CENSORED
76 - Lillebonne,CA Caux Seine Agglo,Seine-Maritime,Normandie,76384,3. Autre,Signée,2020-01-24,,5,24-01-2025,date fin 31/12/2026 - avenant signé le 04/01/2024 ,,false,false,0.53416798840396,49.5081773997036,30-04-2025 17:03,CENSORED
76 - Port-Jérôme-sur-Seine,CA Caux Seine Agglo,Seine-Maritime,Normandie,76476,3. Autre,Signée,2020-01-24,,5,24-01-2025,date fin 31/12/2026 - avenant signé le 04/01/2024 ,,false,false,0.58747960591254,49.5028689811901,30-04-2025 17:03,CENSORED
76 - Bolbec,CA Caux Seine Agglo,Seine-Maritime,Normandie,76114,2. Commune PVD,Signée,2020-01-24,,5,24-01-2025,date fin 31/12/2026 - avenant signé le 04/01/2024 ,,false,true,0.483849170045285,49.5757947211857,30-04-2025 17:03,CENSORED
28 - Chartres,CA Chartres Métropole,Eure-et-Loir,Centre-Val de Loire,28085,1. Commune ACV,Signée,2020-01-13,,0,,"Un grand secteur d'intervention, avec, en plus du secteur ACV, le plateau nord-est et le quartier de la Madeleine à Chartres, et une partie de Lucé et de Mainvilliers (incluant le quartier NPNRU pour cette dernière commune).Ce secteur prévoit des seuils de 2500 et 5000 m² d’exemption de CDAC. Un deuxième secteur d’intervention (hors centre-ville, pas d’exemption de CDAC) est situé à l’ouest de Mainvilliers.",,true,false,1.50627257396824,48.4470872486488,09-12-2022 14:13,CENSORED
28 - Lucé,CA Chartres Métropole,Eure-et-Loir,Centre-Val de Loire,28218,3. Autre,Signée,2020-01-13,,0,,,,false,false,1.45248391638323,48.4352759490344,09-12-2022 14:13,CENSORED
28 - Mainvilliers,CA Chartres Métropole,Eure-et-Loir,Centre-Val de Loire,28229,3. Autre,Signée,2020-01-13,,0,,"Un grand secteur d'intervention, avec, en plus du secteur ACV, le plateau nord-est et le quartier de la Madeleine à Chartres, et une partie de Lucé et de Mainvilliers (incluant le quartier NPNRU pour cette dernière commune).Ce secteur prévoit des seuils de 2500 et 5000 m² d’exemption de CDAC. Un deuxième secteur d’intervention (hors centre-ville, pas d’exemption de CDAC) est situé à l’ouest de Mainvilliers.",,false,false,1.44571607286081,48.4628125226613,09-12-2022 14:13,CENSORED
36 - Châteauroux,CA Châteauroux Métropole,Indre,Centre-Val de Loire,36044,1. Commune ACV,Signée,2019-08-06,,0,,"La convention cadre Cœur de ville a été homologuée en convention ORT le 06 août 2019 par arrêté préfectoral. 
Avenant à la convention cadre ACV signé officiellement le 20 février 2020.
Nouvel avenant le 18/11/22 pour intégrer les ORT d'Ardentes et Déols",,true,false,1.6937670290601,46.8031879551205,14-04-2023 10:40,CENSORED
36 - Ardentes,CA Châteauroux Métropole,Indre,Centre-Val de Loire,36005,2. Commune PVD,Signée,2022-11-18,,0,,ORT,Phase opérationnelle,false,true,1.82331314054508,46.7364146765838,16-07-2024 09:48,CENSORED
36 - Déols,CA Châteauroux Métropole,Indre,Centre-Val de Loire,36063,2. Commune PVD,Signée,2022-11-18,,0,,ORT,Phase opérationnelle,false,true,1.70478260060344,46.8405688280126,16-07-2024 09:48,CENSORED
02 - Chauny,CA Chauny-Tergnier-La Fère,Aisne,Hauts-de-France,02173,2. Commune PVD,Signée,2022-03-16,,5,16-03-2027,Commune groupée avec Tergnier et La Fère. Convention d'adhésion PVD signée le 29/04/2021.,Phase opérationnelle,false,true,3.21876527994737,49.6198063698091,12-09-2023 11:49,CENSORED
02 - La Fère,CA Chauny-Tergnier-La Fère,Aisne,Hauts-de-France,02304,2. Commune PVD,Signée,2022-03-16,,5,16-03-2027,Commune groupée avec Chauny et Tergnier. Convention d'adhésion PVD signée le 29/04/2021.,Phase opérationnelle,false,true,3.36938723506122,49.6670210655623,12-09-2023 11:49,CENSORED
02 - Tergnier,CA Chauny-Tergnier-La Fère,Aisne,Hauts-de-France,02738,2. Commune PVD,Signée,2022-03-16,,5,16-03-2027,Commune groupée avec Chauny et La Fère. Convention d'adhésion PVD signée le 29/04/2021.,Phase opérationnelle,false,true,3.29956821891048,49.6569585024743,12-09-2023 11:50,CENSORED
974 - Saint-Pierre,CA CIVIS (Communauté Intercommunale des VIlles Solidaires),La Réunion,La Réunion,97416,1. Commune ACV,Signée,2021-11-19,,0,,,,true,false,55.493868375094,-21.3122787256608,09-12-2022 14:13,CENSORED
974 - Cilaos,CA CIVIS (Communauté Intercommunale des VIlles Solidaires),La Réunion,La Réunion,97424,2. Commune PVD,Non signée,,,0,,,,false,true,55.4588015370287,-21.1438785938253,27-11-2023 16:30,CENSORED
974 - Les Avirons,CA CIVIS (Communauté Intercommunale des VIlles Solidaires),La Réunion,La Réunion,97401,2. Commune PVD,Non signée,,,0,,,,false,true,55.3586560539072,-21.2097530998377,27-11-2023 16:30,CENSORED
974 - L'Étang-Salé,CA CIVIS (Communauté Intercommunale des VIlles Solidaires),La Réunion,La Réunion,97404,2. Commune PVD,Non signée,,,0,,,,false,true,55.3668069375464,-21.2491655959984,27-11-2023 16:30,CENSORED
974 - Petite-Île,CA CIVIS (Communauté Intercommunale des VIlles Solidaires),La Réunion,La Réunion,97405,2. Commune PVD,Non signée,,,0,,,,false,true,55.5688344621413,-21.3396977961828,27-11-2023 16:30,CENSORED
44 - Clisson,CA Clisson Sèvre et Maine Agglo,Loire-Atlantique,Pays de la Loire,44043,2. Commune PVD,Signée,2022-11-29,,0,31-12-2027,Convention d'adhésion signée,Phase opérationnelle,false,true,-1.27164420434199,47.0972346338471,05-09-2025 14:49,CENSORED
44 - Haute-Goulaine,CA Clisson Sèvre et Maine Agglo,Loire-Atlantique,Pays de la Loire,44071,2. Commune PVD,Signée,2022-11-29,,0,31-12-2027,Convention d'adhésion signée,Phase opérationnelle,false,true,-1.41078960858157,47.1966273751551,05-09-2025 14:49,CENSORED
44 - Gétigné,CA Clisson Sèvre et Maine Agglo,Loire-Atlantique,Pays de la Loire,44063,3. Autre,Signée,2022-11-29,,0,31-12-2027,Commune ORT,Phase opérationnelle,false,false,-1.21742944525955,47.0814493272826,05-09-2025 14:50,CENSORED
44 - Gorges,CA Clisson Sèvre et Maine Agglo,Loire-Atlantique,Pays de la Loire,44064,3. Autre,Signée,2022-11-29,,0,31-12-2027,Commune ORT,Phase opérationnelle,false,false,-1.31150639599555,47.1045828717775,05-09-2025 14:51,CENSORED
44 - La Haie-Fouassière,CA Clisson Sèvre et Maine Agglo,Loire-Atlantique,Pays de la Loire,44070,3. Autre,Signée,2022-11-29,,0,31-12-2027,Commune ORT,Phase opérationnelle,false,false,-1.40051987662715,47.1620125740936,05-09-2025 14:51,CENSORED
91 - Brétigny-sur-Orge,CA Cœur d'Essonne Agglomération,Essonne,Île-de-France,91103,1. Commune ACV,Signée,2019-12-19,,0,,"1 ORT multipolaire, liée aux projets des 2 communes ACV : Saint Michet et Arpajon, dont elle reprend les avenants présentés au CRE de décembre 2019.  Sainte-Geneviève-des-Bois et Brétigny/Orge considérées comme villes principales. Plusieurs secteurs d’ORT s’ajoutent, dont un le long d’un axe routier de plusieurs communes de la CA (route de Corbeil), incluant des poles gares, et qui doit faire l’objet d’un projet urbain . Des études sont en cours et viendront préciser la stratégie et les actions de l’ORT",,true,false,2.30238130910251,48.6033339517947,09-12-2022 14:13,CENSORED
91 - Saint-Michel-sur-Orge,CA Cœur d'Essonne Agglomération,Essonne,Île-de-France,91570,1. Commune ACV,Signée,2019-12-19,,0,,"1 ORT multipolaire, liée aux projets des 2 communes ACV : Saint Michet et Arpajon, dont elle reprend les avenants présentés au CRE de décembre 2019.  Sainte-Geneviève-des-Bois et Brétigny/Orge considérées comme villes principales. Plusieurs secteurs d’ORT s’ajoutent, dont un le long d’un axe routier de plusieurs communes de la CA (route de Corbeil), incluant des poles gares, et qui doit faire l’objet d’un projet urbain . Des études sont en cours et viendront préciser la stratégie et les actions de l’ORT",,true,false,2.31093745936853,48.6325674448787,09-12-2022 14:13,CENSORED
91 - Arpajon,CA Cœur d'Essonne Agglomération,Essonne,Île-de-France,91021,1. Commune ACV,Signée,2019-12-19,,0,,"1 ORT multipolaire, liée aux projets des 2 communes ACV : Saint Michet et Arpajon, dont elle reprend les avenants présentés au CRE de décembre 2019.  Sainte-Geneviève-des-Bois et Brétigny/Orge considérées comme villes principales. Plusieurs secteurs d’ORT s’ajoutent, dont un le long d’un axe routier de plusieurs communes de la CA (route de Corbeil), incluant des poles gares, et qui doit faire l’objet d’un projet urbain . Des études sont en cours et viendront préciser la stratégie et les actions de l’ORT",,true,false,2.24398512207472,48.5905347381187,09-12-2022 14:13,CENSORED
91 - Villemoisson-sur-Orge,CA Cœur d'Essonne Agglomération,Essonne,Île-de-France,91667,3. Autre,Signée,2019-12-19,,0,,"1 ORT multipolaire, liée aux projets des 2 communes ACV : Saint Michet et Arpajon, dont elle reprend les avenants présentés au CRE de décembre 2019.  Sainte-Geneviève-des-Bois et Brétigny/Orge considérées comme villes principales. Plusieurs secteurs d’ORT s’ajoutent, dont un le long d’un axe routier de plusieurs communes de la CA (route de Corbeil), incluant des poles gares, et qui doit faire l’objet d’un projet urbain . Des études sont en cours et viendront préciser la stratégie et les actions de l’ORT",,false,false,2.33060167430627,48.6613786864951,09-12-2022 14:13,CENSORED
91 - Morsang-sur-Orge,CA Cœur d'Essonne Agglomération,Essonne,Île-de-France,91434,3. Autre,Signée,2019-12-19,,0,,"1 ORT multipolaire, liée aux projets des 2 communes ACV : Saint Michet et Arpajon, dont elle reprend les avenants présentés au CRE de décembre 2019.  Sainte-Geneviève-des-Bois et Brétigny/Orge considérées comme villes principales. Plusieurs secteurs d’ORT s’ajoutent, dont un le long d’un axe routier de plusieurs communes de la CA (route de Corbeil), incluant des poles gares, et qui doit faire l’objet d’un projet urbain . Des études sont en cours et viendront préciser la stratégie et les actions de l’ORT",,false,false,2.35185906167814,48.6566772720715,09-12-2022 14:13,CENSORED
91 - Marolles-en-Hurepoix,CA Cœur d'Essonne Agglomération,Essonne,Île-de-France,91376,3. Autre,Signée,2019-12-19,,0,,"1 ORT multipolaire, liée aux projets des 2 communes ACV : Saint Michet et Arpajon, dont elle reprend les avenants présentés au CRE de décembre 2019.  Sainte-Geneviève-des-Bois et Brétigny/Orge considérées comme villes principales. Plusieurs secteurs d’ORT s’ajoutent, dont un le long d’un axe routier de plusieurs communes de la CA (route de Corbeil), incluant des poles gares, et qui doit faire l’objet d’un projet urbain . Des études sont en cours et viendront préciser la stratégie et les actions de l’ORT",,false,false,2.30020433391237,48.5649531951877,09-12-2022 14:13,CENSORED
91 - Breuillet,CA Cœur d'Essonne Agglomération,Essonne,Île-de-France,91105,2. Commune PVD,Signée,2019-12-19,,0,,"1 ORT multipolaire, liée aux projets des 2 communes ACV : Saint Michet et Arpajon, dont elle reprend les avenants présentés au CRE de décembre 2019.  Sainte-Geneviève-des-Bois et Brétigny/Orge considérées comme villes principales. Plusieurs secteurs d’ORT s’ajoutent, dont un le long d’un axe routier de plusieurs communes de la CA (route de Corbeil), incluant des poles gares, et qui doit faire l’objet d’un projet urbain . Des études sont en cours et viendront préciser la stratégie et les actions de l’ORT",,false,true,2.16571874494053,48.5719710516873,09-12-2022 14:13,CENSORED
91 - Sainte-Geneviève-des-Bois,CA Cœur d'Essonne Agglomération,Essonne,Île-de-France,91549,3. Autre,Signée,2019-12-19,,0,,"1 ORT multipolaire, liée aux projets des 2 communes ACV : Saint Michet et Arpajon, dont elle reprend les avenants présentés au CRE de décembre 2019.  Sainte-Geneviève-des-Bois et Brétigny/Orge considérées comme villes principales. Plusieurs secteurs d’ORT s’ajoutent, dont un le long d’un axe routier de plusieurs communes de la CA (route de Corbeil), incluant des poles gares, et qui doit faire l’objet d’un projet urbain . Des études sont en cours et viendront préciser la stratégie et les actions de l’ORT",,false,false,2.33019981318414,48.6408645881818,09-12-2022 14:13,CENSORED
68 - Ingersheim,CA Colmar Agglomération,Haut-Rhin,Grand Est,68155,3. Autre,Signée,2020-03-08,,0,,Démarche ORT engagée,,false,false,7.31177024277799,48.1013916237653,09-12-2022 14:13,CENSORED
68 - Wintzenheim,CA Colmar Agglomération,Haut-Rhin,Grand Est,68374,3. Autre,Signée,2020-03-08,,0,,Démarche ORT engagée,,false,false,7.27066562297772,48.0635936732791,09-12-2022 14:13,CENSORED
68 - Colmar,CA Colmar Agglomération,Haut-Rhin,Grand Est,68066,1. Commune ACV,Signée,2020-02-08,,0,,"
Arrêté préfectoral du 8 février 2020 portant homologation de la convention-cadre ACV en ORT

A noter :

- ralentissement de l’aboutissement de la phase d’intialisation du fait de l’adjonction à Colmar des centres-villes secondaires qui l’entourent (Wintzenheim, Ingersheim, Horbourg-Wihr et Turckheim)
==> attente des résultats des études sur l’habitat et les commerces dans les centralités périphériques lancées dans un second temps (en 2019) pour passer en phase déploiement car nécessité d’une cohérence et de la complémentarité du projet d’ensemble de territoire,

- élections du maire de Colmar et du président de la CA Colmar Agglomération devraient permettre de retrouver une dynamique dans le programme ACV.

- comité des centralités du 31/03/2021 : constat d’absence d’avenant à la convention-cadre ⇒ demande délai supplémentaire par Maire de Colmar
",,true,false,7.38434011741606,48.1095447871778,09-12-2022 14:13,CENSORED
68 - Horbourg-Wihr,CA Colmar Agglomération,Haut-Rhin,Grand Est,68145,3. Autre,Signée,2020-02-08,,0,,,,false,false,7.40372383903791,48.0826917379073,09-12-2022 14:13,CENSORED
68 - Turckheim,CA Colmar Agglomération,Haut-Rhin,Grand Est,68338,3. Autre,Signée,2020-03-08,,0,,Démarche ORT engagée,,false,false,7.25055686126977,48.0863194810065,09-12-2022 14:13,CENSORED
91 - Palaiseau,CA Communauté Paris-Saclay,Essonne,Île-de-France,91477,3. Autre,Non signée,,1er trimestre 2023,0,,"ORT spontannée, sans dispositif contractuel préalable",,false,false,2.2290644488313,48.7147503151051,09-12-2022 14:13,CENSORED
91 - Longjumeau,CA Communauté Paris-Saclay,Essonne,Île-de-France,91345,3. Autre,Non signée,,1er trimestre 2023,0,,"ORT spontannée, sans dispositif contractuel préalable",,false,false,2.30219069596381,48.689357429333,09-12-2022 14:13,CENSORED
91 - Massy,CA Communauté Paris-Saclay,Essonne,Île-de-France,91377,3. Autre,Non signée,,1er trimestre 2023,0,,"ORT spontannée, sans dispositif contractuel préalable",,false,false,2.27487449581622,48.727384228608,09-12-2022 14:13,CENSORED
29 - Rosporden,CA Concarneau Cornouaille Agglomération,Finistère,Bretagne,29241,2. Commune PVD,Signée,2023-03-21,3e trimestre 2022,0,,"Dynamique PVD finalement engagée fin 2021. ORT commune avec Pont Aven, Concarneau, Trégunc",,false,true,-3.80088242287364,47.9582225464685,15-11-2023 15:19,CENSORED
29 - Concarneau,CA Concarneau Cornouaille Agglomération,Finistère,Bretagne,29039,2. Commune PVD,Signée,2023-03-21,3e trimestre 2022,0,,"ORT commune avec Tregunc et Pont-Aven, ainsi que Rosporden qui est en avance sur la rédaction de la convention et aussi sur la mise en place du programme PVD.",,false,true,-3.90762423128838,47.896810690055,15-11-2023 15:19,CENSORED
29 - Trégunc,CA Concarneau Cornouaille Agglomération,Finistère,Bretagne,29293,2. Commune PVD,Signée,2023-03-21,3e trimestre 2022,0,,"ORT commune avec Concarneau et Pont-Aven, ainsi que Rosporden qui est en avance sur la rédaction de la convention et aussi sur la mise en place du programme PVD.",,false,true,-3.84091005693338,47.8387737485123,15-11-2023 15:19,CENSORED
29 - Pont-Aven,CA Concarneau Cornouaille Agglomération,Finistère,Bretagne,29217,2. Commune PVD,Signée,2023-03-21,3e trimestre 2022,0,,"ORT commune avec Concarneau et Tregunc, ainsi que Rosporden qui est en avance sur la rédaction de la convention et aussi sur la mise en place du programme PVD.",,false,true,-3.76475291982813,47.8719964983366,15-11-2023 15:20,CENSORED
77 - La Ferté-sous-Jouarre,CA Coulommiers Pays de Brie,Seine-et-Marne,Île-de-France,77183,2. Commune PVD,Non signée,,,0,,Le sujet pourra être évoqué dans le cadre du programme petites villes de demain – pas de retour de la collectivité à ce jour,,false,true,3.12691023576247,48.9545087493779,09-12-2022 14:13,CENSORED
77 - Coulommiers,CA Coulommiers Pays de Brie,Seine-et-Marne,Île-de-France,77131,1. Commune ACV,Signée,2020-10-05,,0,,Avenant ne valant pas OPAH-RU (mais démarrage étude pré-op),Phase d'étude,true,false,3.09057334636959,48.8125255802148,09-12-2022 14:13,CENSORED
77 - Jouarre,CA Coulommiers Pays de Brie,Seine-et-Marne,Île-de-France,77238,3. Autre,Non signée,,,0,,Le sujet pourra être évoqué dans le cadre du programme petites villes de demain – pas de retour de la collectivité à ce jour,,false,false,3.11342181723917,48.9026389911457,09-12-2022 14:13,CENSORED
77 - Crécy-la-Chapelle,CA Coulommiers Pays de Brie,Seine-et-Marne,Île-de-France,77142,2. Commune PVD,Non signée,,,0,,,,false,true,2.93322440430615,48.8572776861957,23-04-2024 13:56,CENSORED
60 - Creil,CA Creil Sud Oise,Oise,Hauts-de-France,60175,1. Commune ACV,Signée,2020-02-13,,0,,L’avenant de déploiement homologuant la convention ACV en ORT a été signé le 13 février 2020. Un nouvel avenant présenté en CRE le 14 février 2020 afin de prendre en compte les modifications sur le volet habitat notamment s’agissant de la convention OPAH-RU de Creil est actuellement dans le circuit de signature.,,true,false,2.48350544876071,49.2534510352324,09-12-2022 14:13,CENSORED
60 - Montataire,CA Creil Sud Oise,Oise,Hauts-de-France,60414,3. Autre,Signée,2020-02-13,,0,,ORT avec Creil,,false,false,2.4298536702376,49.2637410618743,09-12-2022 14:13,CENSORED
60 - Nogent-sur-Oise,CA Creil Sud Oise,Oise,Hauts-de-France,60463,3. Autre,Signée,2020-02-13,,0,,ORT avec Creil,,false,false,2.46333393167875,49.2761883955122,09-12-2022 14:13,CENSORED
13 - Arles,CA d'Arles-Crau-Camargue-Montagnette,Bouches-du-Rhône,Provence-Alpes-Côte d'Azur,13004,1. Commune ACV,Signée,2020-06-29,,0,,Arrêté d'homologation « chapeau » sur les conventions ACV Arles et Tarascon,,true,false,4.66185977767188,43.5471125466783,09-12-2022 14:13,CENSORED
13 - Tarascon,CA d'Arles-Crau-Camargue-Montagnette,Bouches-du-Rhône,Provence-Alpes-Côte d'Azur,13108,1. Commune ACV,Signée,2020-06-29,,0,,Arrêté d'homologation « chapeau » sur les conventions ACV Arles et Tarascon,,true,false,4.68612061453755,43.794234905627,09-12-2022 14:13,CENSORED
13 - Saint-Martin-de-Crau,CA d'Arles-Crau-Camargue-Montagnette,Bouches-du-Rhône,Provence-Alpes-Côte d'Azur,13097,2. Commune PVD,,,,0,,,,false,true,4.85614477517704,43.6121765691596,08-09-2023 17:19,CENSORED
88 - Épinal,CA d'Épinal,Vosges,Grand Est,88160,1. Commune ACV,Signée,2020-12-01,,0,,"
Au 08/01/2021 :
- signature d’un avenant à la convention de projet, actant le passage de la phase d’initialisation à la phase de déploiement et transformant la convention ACV en convention d'Opération de Revitalisation de Territoire (ORT) en décembre 2020. L'avenant 3 à la convention cadre ORT a été signé le 06 février 2024 ; il couvre la période du 2023/2026",,true,false,6.47939386078981,48.1632590539861,07-02-2024 13:58,CENSORED
88 - Charmes,CA d'Épinal,Vosges,Grand Est,88090,2. Commune PVD,Signée,2023-05-10,2e trimestre 2023,5,10-05-2028,,Phase opérationnelle,false,true,6.31811496491191,48.3851492249397,16-06-2023 14:03,CENSORED
88 - La Vôge-les-Bains,CA d'Épinal,Vosges,Grand Est,88029,2. Commune PVD,Signée,2023-05-10,2e trimestre 2023,5,10-05-2028,,Phase opérationnelle,false,true,6.25290566598079,48.0157585726314,16-06-2023 14:03,CENSORED
88 - Xertigny,CA d'Épinal,Vosges,Grand Est,88530,2. Commune PVD,Signée,2023-05-10,2e trimestre 2023,5,10-05-2028,,Phase opérationnelle,false,true,6.38247255725482,48.0386820472593,16-06-2023 14:03,CENSORED
88 - Capavenir Vosges,CA d'Épinal,Vosges,Grand Est,88465,3. Autre,Signée,2025-07-11,,5,11-07-2030,signature d'un avenant à la convention de la CA d'Epinal,Phase opérationnelle,false,false,6.42327207161909,48.251973635067,19-08-2025 11:17,CENSORED
62 - Hénin-Beaumont,CA d'Hénin-Carvin,Pas-de-Calais,Hauts-de-France,62427,3. Autre,Non signée,,,0,,Ville-centre d’un EPCI avec plusieurs communes PVD,,false,false,2.95922192872404,50.4095251671129,09-12-2022 14:13,CENSORED
62 - Carvin,CA d'Hénin-Carvin,Pas-de-Calais,Hauts-de-France,62215,2. Commune PVD,Signée,2023-03-23,,0,,Commune PVD,,false,true,2.94847933801914,50.4894340341701,05-06-2023 13:42,CENSORED
62 - Libercourt,CA d'Hénin-Carvin,Pas-de-Calais,Hauts-de-France,62907,2. Commune PVD,Signée,2023-01-18,,0,,Commune PVD,,false,true,2.99782842873958,50.4818441308644,05-06-2023 13:42,CENSORED
55 - Bar-le-Duc,CA de Bar-le-Duc - Sud Meuse,Meuse,Grand Est,55029,1. Commune ACV,Signée,2020-01-16,,6,16-01-2026,"
Association de Bar-le-Duc et Ligny-en-Barrois pour la réalisation d'une ORT multi-sites.

Arrêté préfectoral actant le déploiement de l’ORT sur la commune de Bar-le-Duc le 16/01/2020. Signature médiatique d’une convention d’intention mutli-sites Bar-le-Duc – Ligny-en-Barrois en présence de Mme la Ministre Jacqueline Gourault le 17/01/2020. Régularisation de la signature de la convention multi-sites après les élections municipales, à la date du 01/10/2020

⇒ ORT chapeau créée

L’avenant à la convention ACV, quant à lui, a été retravaillé par les services et validé en comité des financeurs en 12/2020 et sera signé dans les semaines à venir
",Phase opérationnelle,true,false,5.16325440918426,48.7642055649085,12-04-2024 16:55,CENSORED
55 - Ligny-en-Barrois,CA de Bar-le-Duc - Sud Meuse,Meuse,Grand Est,55291,2. Commune PVD,Signée,2020-10-01,,6,01-10-2026,"- Convention chapeau multi-sites : signature médiatique  d’intention le 17/01/2020 par Madame la Ministre CTRCT pour une ORT avec Bar-le-Duc.
- Délibération autorisant le maire de Ligny-en-Barrois à signer la convention prise après les élections municipales de 03/2020 pour éviter tout risque juridique, le maire ne s’étant pas représenté
- Régularisation de la signature à la date du 01/10/2020
- cheffe de projet recrutée le 03/01/2021
-  Convention cadre pour le 11/12/2022
Depuis le COPIL le 14 octobre 2021. De nombreux projets sont lancés en particulier l’aménagement de la rue Leroux, l’achat par l’EPFGE de locaux commerciaux…
Lors de la réunion du 13 juillet, le DGS (nouvellement arrivé) et la cheffe de projet ont confirmé avoir lancé la rédaction d’un projet de territoire qui s’appuie sur le PLH de la CA ; l’étude PLUI en cours. Un planning de validation sera présenté en septembre en cotech (y compris CA) et ensuite en COPIL.
Projet de territoire en cours de formalisation.",Phase opérationnelle,false,true,5.29506504604173,48.6617974211532,06-05-2024 10:00,CENSORED
2B - Bastia,CA de Bastia,Haute-Corse,Corse,2B033,1. Commune ACV,Signée,2019-12-17,,0,,"Homologation de la convention ACV du 25 septembre 2018 en ORT par arrêté préfectoral Du 17 décembre 2019. AMI « réinventons nos coeurs de ville » en cours sur le site du Bon pasteur. 29/12/2020 : signature de l’avenant n°1 à la convention cadre du programme ACV de Bastia.22/07/2021: élargissement du périmètre par arrêté n° 254 portant modification du périmètre de l’ORT

L’avenant n°1 
- introduit un nouvel axe sur la reconnexion à l’espace Maritime ; 
- réactualise le plan d’actions (initial : 2 diagnostics + 16 actions, il comprend désormais 7 diagnostics + 41actions), 
- modifie le périmètre  afin d’inclure des actions structurantes",,true,false,9.42499534604259,42.686366775113,09-12-2022 14:13,CENSORED
62 - Lillers,"CA de Béthune-Bruay, Artois-Lys Romane",Pas-de-Calais,Hauts-de-France,62516,2. Commune PVD,Signée,2023-03-07,,0,,"Commune PVD. Convention ORT existante signée par la CABBALR, Béthune et Bruay-la-Buissière",,false,true,2.48219472196664,50.5616039906504,05-06-2023 13:44,CENSORED
62 - Auchel,"CA de Béthune-Bruay, Artois-Lys Romane",Pas-de-Calais,Hauts-de-France,62048,2. Commune PVD,Signée,2022-03-07,,0,,"Commune PVD. Convention ORT existante signée par la CABBALR, Béthune et Bruay-la-Buissière",,false,true,2.469206765206,50.5099365899269,05-06-2023 13:44,CENSORED
62 - Calonne-Ricouart,"CA de Béthune-Bruay, Artois-Lys Romane",Pas-de-Calais,Hauts-de-France,62194,2. Commune PVD,Signée,2023-03-07,,0,,"Commune PVD. Convention ORT existante signée par la CABBALR, Béthune et Bruay-la-Buissière",,false,true,2.48598970394512,50.4897454655014,05-06-2023 13:44,CENSORED
62 - Béthune,"CA de Béthune-Bruay, Artois-Lys Romane",Pas-de-Calais,Hauts-de-France,62119,1. Commune ACV,Signée,2020-02-13,,0,,par arrêté préfectoral,,true,false,2.64370481591717,50.5295897961655,09-12-2022 14:13,CENSORED
62 - Bruay-la-Buissière,"CA de Béthune-Bruay, Artois-Lys Romane",Pas-de-Calais,Hauts-de-France,62178,1. Commune ACV,Signée,2020-02-13,,0,,"La convention ORT sera présentée en CC du 11/02/21, et intégrera les plans d'actions des 5 communes.",,true,false,2.55227548475508,50.4900190733513,09-12-2022 14:13,CENSORED
34 - Béziers,CA de Béziers-Méditerranée,Hérault,Occitanie,34032,1. Commune ACV,Signée,2021-02-26,,5,31-12-2026,Signature de la convention ACV2 le 02/02/2024,Phase opérationnelle,true,false,3.2306889142515,43.3476642121461,25-08-2025 10:14,CENSORED
41 - Blois,CA de Blois Agglopolys,Loir-et-Cher,Centre-Val de Loire,41018,1. Commune ACV,Signée,2019-12-04,,7,31-03-2026,Convention chapeau ORT (regroupant Blois et Veuzain-sur-Loire) le 3 juillet 2024. Avenant n°4 prolongeant le programme et modifiant l'ORT signée le 3 avril 2024.,Phase opérationnelle,true,false,1.30609093048943,47.5817898395901,03-09-2025 12:05,CENSORED
41 - Veuzain-sur-Loire,CA de Blois Agglopolys,Loir-et-Cher,Centre-Val de Loire,41167,2. Commune PVD,Signée,2023-03-07,,5,31-03-2026,Intégration d'une ORT via une convention chapeau ORT à l'échelle intercommunale (intégrant la convention-cadre PVD de Veuzain-sur-loire et la convention-cadre ACV de Blois),Phase opérationnelle,false,true,1.15690579395433,47.505092740779,03-09-2025 12:14,CENSORED
59 - Cambrai,CA de Cambrai,Nord,Hauts-de-France,59122,1. Commune ACV,Signée,2020-07-10,,5,10-07-2025,,,true,false,3.24151622655328,50.1700416983908,27-06-2024 17:38,CENSORED
81 - Castres,CA de Castres Mazamet,Tarn,Occitanie,81065,1. Commune ACV,Signée,2021-02-28,,0,,En binôme avec Mazamet,,true,false,2.23808818605645,43.6157482763355,09-12-2022 14:13,CENSORED
81 - Mazamet,CA de Castres Mazamet,Tarn,Occitanie,81163,1. Commune ACV,Signée,2021-02-28,,0,,"En binôme avec Castres
",,true,false,2.38877884813684,43.4578651959481,09-12-2022 14:13,CENSORED
95 - Pontoise,CA de Cergy-Pontoise,Val-d'Oise,Île-de-France,95500,1. Commune ACV,Signée,2023-12-28,,0,,,,true,false,2.09489707040011,49.0513264564575,04-11-2024 09:57,CENSORED
51 - Mourmelon-le-Grand,CA de Châlons-en-Champagne,Marne,Grand Est,51388,2. Commune PVD,Signée,2023-03-20,4e trimestre 2022,0,,- Commune lauréate du dispositif PVD - intégration à l'ORT de la CAC en cours,,false,true,4.38693096714045,49.1327708552135,16-11-2023 09:46,CENSORED
51 - Châlons-en-Champagne,CA de Châlons-en-Champagne,Marne,Grand Est,51108,1. Commune ACV,Signée,2020-02-12,,0,,"
- Réunion publique présidée par le Maire le 05/07/2019 pour présenter les projets de centre-ville à venir

- Transformation de la convention-cadre ACV en convention ORT examinée lors du comité de projet du 25/11/2019

- AP signée le 12/02/2020

- Projet d'avenant pour modifier certaines actions de la convention initiale, en ajouter et transformer la convention en ORT, signé le 5 juillet 2021

- Projet d’avenant valant OPAH-RU : en cours

- La dernière réunion du comité de projet ACV remonte à octobre 2020

- La prochaine réunion du comité est prévue le 03/02/2022 
",,true,false,4.37828052305912,48.964430991138,09-12-2022 14:13,CENSORED
52 - Nogent,CA de Chaumont,Haute-Marne,Grand Est,52353,2. Commune PVD,Signée,2023-03-16,,0,,"


Convention-cadre PVD élaborée. En attente de signature de la convention Chapeau",Phase opérationnelle,false,true,5.36498806487088,48.0370036167118,12-12-2023 16:45,CENSORED
52 - Chaumont,CA de Chaumont,Haute-Marne,Grand Est,52121,1. Commune ACV,Signée,2020-07-08,,0,,"
Avenant élaboré pour élargir le périmètre de l'ORT

",Phase opérationnelle,true,false,5.14021045346752,48.0977571838615,30-01-2023 10:37,CENSORED
52 - Biesles,CA de Chaumont,Haute-Marne,Grand Est,52050,2. Commune PVD,Signée,2023-03-16,,0,,,Phase opérationnelle,false,true,5.28610870947669,48.1030635604889,12-12-2023 16:45,CENSORED
52 - Bologne,CA de Chaumont,Haute-Marne,Grand Est,52058,2. Commune PVD,Signée,2023-03-16,,0,,,Phase opérationnelle,false,true,5.14161933106132,48.1989326419184,12-12-2023 16:45,CENSORED
52 - Froncles,CA de Chaumont,Haute-Marne,Grand Est,52211,2. Commune PVD,Signée,2023-03-16,,0,,,Phase opérationnelle,false,true,5.13933630568451,48.2997101611321,12-12-2023 16:44,CENSORED
976 - Dembeni,CA de Dembeni/Mamoudzou,Mayotte,Mayotte,97607,1. Commune ACV,Signée,2019-11-27,,0,,Projet commun Mamoudzou - Dembeni. AP puis Avenant prévu 6 décembre 2019,,true,false,45.1761945243638,-12.8530364418604,09-12-2022 14:13,CENSORED
976 - Mamoudzou,CA de Dembeni/Mamoudzou,Mayotte,Mayotte,97611,1. Commune ACV,Signée,2020-11-27,,0,,Projet commun Mamoudzou - Dembeni. AP puis Avenant prévu 6 décembre 2019,,true,false,45.1938435526157,-12.7897676312369,09-12-2022 14:13,CENSORED
57 - Forbach,CA de Forbach Porte de France,Moselle,Grand Est,57227,1. Commune ACV,Signée,2020-03-01,,0,,"Ville retenue dans le cadre de l'étude nationale sur la vacance commerciale et les stratégies de revitalisation
Validation périmètre ORT et avenant à la convention-cadre lors du comité régional d’engagement du 18/02/2020
Remise en cause du plan d’action défini par la nouvelle municipalité ⇒ nouvel avenant signé en 2022
Avenant ACV2 signé le 23 janvier 2024",,true,false,6.89280884534599,49.1917778822758,09-02-2024 15:46,CENSORED
67 - Brumath,CA de Haguenau,Bas-Rhin,Grand Est,67067,3. Autre,Signée,2020-12-11,,0,,ORT CA Haguenau,Phase opérationnelle,false,false,7.71671391117157,48.7207757020424,07-09-2023 15:29,CENSORED
67 - Bischwiller,CA de Haguenau,Bas-Rhin,Grand Est,67046,3. Autre,Signée,2020-12-11,,0,,ORT CA Haguenau,Phase opérationnelle,false,false,7.85985618595894,48.7583572950829,07-09-2023 15:30,CENSORED
67 - Val-de-Moder,CA de Haguenau,Bas-Rhin,Grand Est,67372,3. Autre,Signée,2020-12-11,,0,,ORT CA Haguenau,Phase opérationnelle,false,false,7.60912518103852,48.841197583461,07-09-2023 15:30,CENSORED
67 - Haguenau,CA de Haguenau,Bas-Rhin,Grand Est,67180,1. Commune ACV,Signée,2020-12-11,,0,,ORT CA Haguenau,Phase opérationnelle,true,false,7.83048799795338,48.8421839871163,09-12-2022 14:13,CENSORED
67 - Schweighouse-sur-Moder,CA de Haguenau,Bas-Rhin,Grand Est,67458,3. Autre,Signée,2020-12-11,,0,,ORT CA Haguenau,Phase opérationnelle,false,false,7.73848079503559,48.8177254079192,07-09-2023 15:30,CENSORED
81 - Albi,CA de l'Albigeois (C2A),Tarn,Occitanie,81004,1. Commune ACV,Signée,2021-02-24,,0,,"Transformation de la convention ACV en convention ORT initié en juin 2020.
Avis > 0 de la CREF en novembre.
Délib ville d’Albi du 14/12/2020.
Délib C2A du 15/12/2020
Avenant phase de déploiement ACV + ORT signé le 24/02/2021",,true,false,2.14711272813639,43.9260384045013,09-12-2022 14:13,CENSORED
89 - Auxerre,CA de l'Auxerrois,Yonne,Bourgogne-Franche-Comté,89024,1. Commune ACV,Signée,2020-08-26,,5,26-08-2025,,,true,false,3.58195477056379,47.7941553649471,21-11-2023 15:56,CENSORED
972 - Les Trois-Îlets,CA de l'Espace Sud de la Martinique,Martinique,Martinique,97231,2. Commune PVD,Signée,2023-04-28,,5,28-04-2028,Convention cadre PVD qui vaut ORT,Phase opérationnelle,false,true,-61.0377342306751,14.5267395176438,16-11-2023 15:07,CENSORED
972 - Les Anses-d'Arlet,CA de l'Espace Sud de la Martinique,Martinique,Martinique,97202,2. Commune PVD,Signée,2023-04-28,,5,28-04-2028,Convention cadre PVD qui vaut ORT,Phase opérationnelle,false,true,-61.0721296801239,14.4988757075278,16-11-2023 15:07,CENSORED
972 - Le Vauclin,CA de l'Espace Sud de la Martinique,Martinique,Martinique,97232,2. Commune PVD,Signée,2023-04-28,,5,28-04-2028,Convention cadre PVD qui vaut ORT,Phase opérationnelle,false,true,-60.85758688786,14.5436576388572,16-11-2023 15:07,CENSORED
972 - Saint-Esprit,CA de l'Espace Sud de la Martinique,Martinique,Martinique,97223,2. Commune PVD,Signée,2023-04-28,,5,28-04-2028,Convention cadre PVD qui vaut ORT,Phase opérationnelle,false,true,-60.9212439301795,14.5591827709996,16-11-2023 15:07,CENSORED
972 - Rivière-Pilote,CA de l'Espace Sud de la Martinique,Martinique,Martinique,97220,2. Commune PVD,Signée,2023-04-28,,5,28-04-2028,Convention cadre PVD qui vaut ORT,Phase opérationnelle,false,true,-60.8976447028651,14.5093113131545,16-11-2023 15:07,CENSORED
972 - Sainte-Luce,CA de l'Espace Sud de la Martinique,Martinique,Martinique,97227,2. Commune PVD,Signée,2023-04-28,,5,28-04-2028,Convention cadre PVD qui vaut ORT,Phase opérationnelle,false,true,-60.9441004954011,14.4856419714649,16-11-2023 15:07,CENSORED
69 - Cours,CA de l'Ouest Rhodanien,Rhône,Auvergne-Rhône-Alpes,69066,2. Commune PVD,Signée,2019-07-18,,,," Une ORT ""muli-sites"" pour l'EPCI avec Tarare (ville principale) et trois pôles secondaires (Thizy, Cours et Amplepuis). Une convention chapeau , la commune de Tarare conserve sa convention ACV. La convention sera modifiée en 2022 pour intégrer les objectifs et actions au titre du programme PVD",,false,true,4.345949392719,46.1070006387825,08-06-2023 14:52,CENSORED
69 - Thizy-les-Bourgs,CA de l'Ouest Rhodanien,Rhône,Auvergne-Rhône-Alpes,69248,2. Commune PVD,Signée,2019-07-18,,,," Une ORT ""muli-sites"" pour l'EPCI avec Tarare (ville principale) et trois pôles secondaires (Thizy, Cours et Amplepuis). Une convention chapeau , la commune de Tarare conserve sa convention ACV. La convention sera modifiée en 2022 pour intégrer les objectifs et actions au titre du programme PVD",,false,true,4.32396777410304,46.0492521345299,08-06-2023 14:52,CENSORED
69 - Amplepuis,CA de l'Ouest Rhodanien,Rhône,Auvergne-Rhône-Alpes,69006,2. Commune PVD,Signée,2019-12-19,,,," Une ORT ""muli-sites"" pour l'EPCI avec Tarare (ville principale) et trois pôles secondaires (Thizy, Cours et Amplepuis). Une convention chapeau , la commune de Tarare conserve sa convention ACV. La convention sera modifiée en 2022 pour intégrer les objectifs et actions au titre du programme PVD",,false,true,4.32901613534706,45.9644419905606,08-06-2023 14:52,CENSORED
69 - Tarare,CA de l'Ouest Rhodanien,Rhône,Auvergne-Rhône-Alpes,69243,1. Commune ACV,Signée,2019-07-18,,,," Une ORT ""muli-sites"" pour l'EPCI avec Tarare (ville principale) et trois pôles secondaires (Thizy, Cours et Amplepuis). Une convention chapeau , la commune de Tarare conserve sa convention ACV. La convention sera modifiée en 2022 pour intégrer les objectifs et actions au titre du programme PVD",,true,false,4.42380917311567,45.9036465433099,08-06-2023 14:52,CENSORED
80 - Cayeux-sur-Mer,CA de la Baie de Somme,Somme,Hauts-de-France,80182,2. Commune PVD,Signée,2023-02-20,,0,,"ORT envisagée avec Abbeville et Longpré ; étude qui va démarrer début septembre (intégration de Saint-Valery, Hallencourt à voir à plus long terme)",,false,true,1.51469400452082,50.1757900765102,11-10-2023 11:37,CENSORED
80 - Saint-Valery-sur-Somme,CA de la Baie de Somme,Somme,Hauts-de-France,80721,2. Commune PVD,Signée,2023-12-12,,0,,intégration de Saint-Valery par avenant,,false,true,1.6230655140107,50.1761877067309,28-12-2023 11:52,CENSORED
80 - Abbeville,CA de la Baie de Somme,Somme,Hauts-de-France,80001,1. Commune ACV,Signée,2023-12-12,,0,,par avenant,,true,false,1.83219371249063,50.1086168060561,28-12-2023 11:53,CENSORED
80 - Longpré-les-Corps-Saints,CA de la Baie de Somme,Somme,Hauts-de-France,80488,3. Autre,Signée,2023-12-12,,0,,ORT avec Abbeville,,false,false,1.98260906638544,50.0124040026239,28-12-2023 11:53,CENSORED
59 - Denain,CA de la Porte du Hainaut,Nord,Hauts-de-France,59172,1. Commune ACV,Signée,2021-07-09,,0,,par avenant,,true,false,3.38987407647946,50.3298440448193,27-06-2024 16:48,CENSORED
44 - Guérande,CA de la Presqu'île de Guérande Atlantique (Cap Atlantique),Loire-Atlantique,Pays de la Loire,44069,2. Commune PVD,Signée,2023-01-31,4e trimestre 2022,0,31-03-2026,Convention d'adhésion signée,,false,true,-2.41629478616036,47.3316234765026,05-09-2025 14:51,CENSORED
44 - Herbignac,CA de la Presqu'île de Guérande Atlantique (Cap Atlantique),Loire-Atlantique,Pays de la Loire,44072,2. Commune PVD,Signée,2023-01-31,4e trimestre 2022,0,31-03-2026,Convention d'adhésion signée,,false,true,-2.31344647179489,47.4469418442182,05-09-2025 14:51,CENSORED
83 - Saint-Maximin-la-Sainte-Baume,CA de la Provence Verte,Var,Provence-Alpes-Côte d'Azur,83116,2. Commune PVD,Signée,2022-07-18,,5,,"Convention ORT dite ""chapeau"" en lien avec le dispositif ACV sur Brignoles, ville-centre de l'EPCI",Phase opérationnelle,false,true,5.85932656789127,43.4510704831322,25-08-2025 11:10,CENSORED
83 - Brignoles,CA de la Provence Verte,Var,Provence-Alpes-Côte d'Azur,83023,1. Commune ACV,Signée,2022-07-18,,5,,"AF Comité de projet du 06/12/19 à une demande d’homologation
AP portant homologation ACV en ORT signé le 27/04/2020
Avenant signé le 26/02/21 Dispositif ORT intégré dans convention ORT chapeau signée le 18/07/2022 avec la commune PVD St-Maximin",Phase opérationnelle,true,false,6.07768232711933,43.3996153180757,25-08-2025 12:02,CENSORED
02 - Fère-en-Tardenois,CA de la Région de Château-Thierry,Aisne,Hauts-de-France,02305,2. Commune PVD,Signée,2023-06-13,,4,13-06-2027,"Il y avait déjà une ORT ACV sur la commune de Château-Thierry (ACV). Une convention ORT dite ""chapeau"" a été formalisée pour intégrer deux communes PVD (Fère-en-Tardenois et Neuilly-Saint-Front) et la commune volontaire de Condé-en-Brie. La convention cadre ORT sera caduque à l'extinction des 2 programmes nationaux conduits localement par les communes signataires (fin 2026).",Phase de démarrage,false,true,3.51059007907291,49.1862248250622,12-09-2023 15:13,CENSORED
02 - Château-Thierry,CA de la Région de Château-Thierry,Aisne,Hauts-de-France,02168,1. Commune ACV,Signée,2023-06-13,,4,13-06-2027,"Il y avait déjà une ORT ACV sur la commune de Château-Thierry (ACV). Une convention ORT dite ""chapeau"" a été formalisée pour intégrer deux communes PVD (Fère-en-Tardenois et Neuilly-Saint-Front) et la commune volontaire de Condé-en-Brie. La convention cadre ORT sera caduque à l'extinction des 2 programmes nationaux conduits localement par les communes signataires (fin 2026).",Phase opérationnelle,true,false,3.38115605267794,49.0570530416821,04-10-2024 17:48,CENSORED
02 - Condé-en-Brie,CA de la Région de Château-Thierry,Aisne,Hauts-de-France,02209,3. Autre,Signée,2023-06-13,,4,13-06-2027,"Il y avait déjà une ORT ACV sur la commune de Château-Thierry (ACV). Une convention ORT dite ""chapeau"" a été formalisée pour intégrer deux communes PVD (Fère-en-Tardenois et Neuilly-Saint-Front) et la commune volontaire de Condé-en-Brie. La convention cadre ORT sera caduque à l'extinction des 2 programmes nationaux conduits localement par les communes signataires (fin 2026).",Phase opérationnelle,false,false,3.56053284044574,49.0016399948354,04-10-2024 17:48,CENSORED
02 - Neuilly-Saint-Front,CA de la Région de Château-Thierry,Aisne,Hauts-de-France,02543,2. Commune PVD,Signée,2023-06-13,,4,13-06-2027,"Il y avait déjà une ORT ACV sur la commune de Château-Thierry (ACV). Une convention ORT dite ""chapeau"" a été formalisée pour intégrer deux communes PVD (Fère-en-Tardenois et Neuilly-Saint-Front) et la commune volontaire de Condé-en-Brie. La convention cadre ORT sera caduque à l'extinction des 2 programmes nationaux conduits localement par les communes signataires (fin 2026).",Phase opérationnelle,false,true,3.26412293326032,49.1631861780583,04-10-2024 17:48,CENSORED
60 - Compiègne,CA de la Région de Compiègne et de la Basse Automne,Oise,Hauts-de-France,60159,1. Commune ACV,Signée,2020-07-24,,0,,Suite à l’ avis favorable du CRE du 31/01/20 l’avenant homologuant la convention ACV en ORT a été signé au début de l’été 2020,,true,false,2.85302089981085,49.3992356406205,09-12-2022 14:13,CENSORED
60 - Margny-lès-Compiègne,CA de la Région de Compiègne et de la Basse Automne,Oise,Hauts-de-France,60382,3. Autre,Signée,2020-07-24,,0,,Suite à l’ avis favorable du CRE du 31/01/20 l’avenant homologuant la convention ACV en ORT a été signé au début de l’été 2020. Ort avec Compiègne,,false,false,2.80493898728382,49.4327450099568,09-12-2022 14:13,CENSORED
60 - Venette,CA de la Région de Compiègne et de la Basse Automne,Oise,Hauts-de-France,60665,3. Autre,Signée,2020-07-24,,0,,Suite à l’ avis favorable du CRE du 31/01/20 l’avenant homologuant la convention ACV en ORT a été signé au début de l’été 2020. Ort avec Compiègne,,false,false,2.78278853451392,49.4191484912559,09-12-2022 14:13,CENSORED
76 - Dieppe,CA de la Région Dieppoise,Seine-Maritime,Normandie,76217,1. Commune ACV,Signée,2019-05-09,,0,,date fin 31/12/2028 - avenant signé en 2023,,true,false,1.08655054762037,49.9217153367428,30-04-2025 17:09,CENSORED
44 - Saint-Nazaire,CA de la Région Nazairienne et de l'Estuaire (CARENE),Loire-Atlantique,Pays de la Loire,44184,1. Commune ACV,Signée,2019-11-18,,0,31-12-2026,par avenant,,true,false,-2.25117304325008,47.2802129190989,05-09-2025 14:58,CENSORED
06 - Sospel,CA de la Riviera Française,Alpes-Maritimes,Provence-Alpes-Côte d'Azur,06136,2. Commune PVD,Signée,2024-10-31,,0,,,,false,true,7.44762883261321,43.8841706776282,31-03-2025 15:28,CENSORED
06 - Tende,CA de la Riviera Française,Alpes-Maritimes,Provence-Alpes-Côte d'Azur,06163,2. Commune PVD,Signée,2024-10-31,,0,,,,false,true,7.54048312949133,44.099815510624,31-03-2025 15:27,CENSORED
06 - Breil-sur-Roya,CA de la Riviera Française,Alpes-Maritimes,Provence-Alpes-Côte d'Azur,06023,2. Commune PVD,Signée,2024-10-31,,0,,,,false,true,7.50382575941672,43.9404521793815,31-03-2025 15:29,CENSORED
17 - La Rochelle,CA de La Rochelle,Charente-Maritime,Nouvelle-Aquitaine,17300,3. Autre,Non signée,,,0,,"
Réunion d’échanges avec les services de la CdA de La Rochelle le 4 avril 2019 autour de la démarche ORT : intérêt pour le dispositif Denormandie Ancien mais pas de dévitalisation réelle du coeur de La Rochelle. La collectivité n’a donc pas souhaité poursuivre la réflexion.",,false,false,-1.17340882737738,46.1625910835349,09-12-2022 14:13,CENSORED
62 - Bully-les-Mines,CA de Lens - Liévin,Pas-de-Calais,Hauts-de-France,62186,2. Commune PVD,Signée,2023-04-06,,0,,"Commune PVD. Convention ORT existante signée par la CALL, Lens et Liévin.",,false,true,2.71979282038833,50.4450304094925,05-06-2023 13:45,CENSORED
62 - Mazingarbe,CA de Lens - Liévin,Pas-de-Calais,Hauts-de-France,62563,2. Commune PVD,Signée,2023-04-06,,0,,"Commune PVD. Convention ORT existante signée par la CALL, Lens et Liévin.",,false,true,2.72436762963099,50.4690066593992,05-06-2023 13:45,CENSORED
62 - Lens,CA de Lens - Liévin,Pas-de-Calais,Hauts-de-France,62498,1. Commune ACV,Signée,2019-08-04,,0,,par arrêté préfectoral ; binôme ACV avec Liévin,,true,false,2.82115096895274,50.4376426990891,09-12-2022 14:13,CENSORED
62 - Liévin,CA de Lens - Liévin,Pas-de-Calais,Hauts-de-France,62510,1. Commune ACV,Signée,2019-08-04,,0,,par arrêté préfectoral ; binôme ACV avec Lens,,true,false,2.77345507782112,50.4240478211953,09-12-2022 14:13,CENSORED
58 - Nevers,CA de Nevers,Nièvre,Bourgogne-Franche-Comté,58194,1. Commune ACV,Signée,2019-07-29,,0,,Avis favorable du comité régional des financeurs sur la demande de passage en ORT le 22/07/19. Arrêté préfectoral d’homologation de l’ORT le 29/07/19. Avenant de projet fin d’initialisation signé le 04/02/20,,true,false,3.1572753220855,46.988239940425,09-12-2022 14:13,CENSORED
30 - Saint-Gilles,CA de Nîmes Métropole,Gard,Occitanie,30258,2. Commune PVD,Signée,2023-10-17,,0,,"PNRQAD – OPAH-RU
Le dispositif Denormandie dans l’ancien s’est appliqué avant l'ORT
Attention, n’est pas ville principale de l’EPCI (Nimes) : dérogation préfectorale octroyée sur la base de l'article L.303-3 CCH car Nîmes pas signataire de l'ORT.",Phase opérationnelle,false,true,4.40744067726976,43.6582039361016,07-01-2025 09:47,CENSORED
88 - Saint-Dié-des-Vosges,CA de Saint-Dié-des-Vosges,Vosges,Grand Est,88413,1. Commune ACV,Signée,2023-07-06,,5,06-07-2028,"
Transformation de la convention ACV en convention ORT par procédure accélérée validée en comité régional des financeurs du 16/05/2019 – Arrêté préfectoral du 21/05/2019
- Ville de Saint-Dié-des-Vosges est lauréate de la consultation nationale « Réinventons nos cœurs de ville »

- Le projet retenu vise à l’implantation d’un lieu de restauration « du quotidien » à destination des étudiants, salariés d’entreprises ou agents des administrations. Cet espace est souhaité en lien fort avec l’Economie Sociale et Solidaire, fortement déficitaire sur le territoire, en faisant du lieu un véritable tremplin pour les personnes en insertion

- Un plateau de formation autour de la filière restauration, les circuits courts ... pourra également être envisagé

- Par ailleurs, la proximité du pôle de l’innovation ou du pôle d’échanges multimodal rend pertinent l’installation, sur ce site, d’un lieu porteur d’innovation (ex : espace de coworking)

⇒ ORT active

- 11/2020 : Présentation d’un avenant à la convention ACV actant le passage à la phase de déploiement en comité régional ==>avis favorable. Actuellement en cours de signature.

",,true,false,6.93832417815842,48.2969365875508,16-11-2023 08:24,CENSORED
88 - Fraize,CA de Saint-Dié-des-Vosges,Vosges,Grand Est,88181,2. Commune PVD,Signée,2023-07-06,2e trimestre 2023,5,06-07-2028,,Phase opérationnelle,false,true,7.01763143917214,48.1869882887531,11-07-2023 16:55,CENSORED
88 - Plainfaing,CA de Saint-Dié-des-Vosges,Vosges,Grand Est,88349,2. Commune PVD,Signée,2023-07-06,2e trimestre 2023,5,06-07-2028,,Phase opérationnelle,false,true,7.03753231125362,48.1430539431963,11-07-2023 16:56,CENSORED
88 - Raon-l'Étape,CA de Saint-Dié-des-Vosges,Vosges,Grand Est,88372,2. Commune PVD,Signée,2023-07-06,2e trimestre 2023,5,06-07-2028,,Phase opérationnelle,false,true,6.86051055371178,48.4076049638365,11-07-2023 16:57,CENSORED
52 - Saint-Dizier,CA de Saint-Dizier Der et Blaise,Haute-Marne,Grand Est,52448,1. Commune ACV,Signée,2019-11-26,,0,,"
- Transformation convention ACV en ORT envisagée à court terme par la collectivité lors du prochain comité de projet

- Recrutement récent d’un directeur de projet

- Homologation ORT et périmètre validé lors du comité de projet du 17/07/2019

- Passage en comité régional Coeur de ville le 19/09/2019 pour transformation de la convention-cadre ACV en convention ORT

⇒ ORT créée

- Présentation de l’avenant à la convention cadre en comité des centralités le 31/03/2021 ⇒ avis favorable pour passage à la phase de déploiement

",Phase opérationnelle,true,false,4.94932288820092,48.6282045518627,09-12-2022 14:13,CENSORED
52 - La Porte du Der,CA de Saint-Dizier Der et Blaise,Haute-Marne,Grand Est,52331,2. Commune PVD,Signée,2023-05-16,,0,,,Phase opérationnelle,false,true,4.8086183822197,48.4761539095314,12-12-2023 16:41,CENSORED
52 - Wassy,CA de Saint-Dizier Der et Blaise,Haute-Marne,Grand Est,52550,2. Commune PVD,Signée,2023-05-16,,0,,,Phase opérationnelle,false,true,4.93142045293816,48.4996894724912,12-12-2023 16:42,CENSORED
78 - Trappes,CA de Saint-Quentin-en-Yvelines,Yvelines,Île-de-France,78621,1. Commune ACV,Non signée,,1er trimestre 2023,0,,"Résultats étude SEMAEST de requalification commerciale le 28/01/20.
Trappes ne pourra pas proposer d'avenant ACV avant le 31 décembre, mais plutôt au 1er trimestre (voire semestre) 2021. Une toute nouvelle équipe municipale s'est mise en place en juillet. Une nouvelle feuille de route devrait être validée, au mieux au CM du 1er février 202). La DDT a rencontré le chef de projet courant décembre.",,true,false,1.99362682783698,48.7754286337563,09-12-2022 14:13,CENSORED
17 - Saintes,CA de Saintes,Charente-Maritime,Nouvelle-Aquitaine,17415,1. Commune ACV,Signée,2019-07-12,,0,,Signature d’un avenant à la convention initiale le 12/07/19 en présence de Julien Denormandie.Signature d’un avenant n° 2 prévue au mois de février 2022.,,true,false,-0.65001262663511,45.7419866949232,09-12-2022 14:13,CENSORED
06 - Vallauris,CA de Sophia Antipolis,Alpes-Maritimes,Provence-Alpes-Côte d'Azur,06155,1. Commune ACV,Non signée,,,0,,pas de volonté affichée,,true,false,7.05778053470804,43.5767292989683,09-12-2022 14:13,CENSORED
70 - Vesoul,CA de Vesoul,Haute-Saône,Bourgogne-Franche-Comté,70550,1. Commune ACV,Signée,2019-10-03,,0,,"demande de la collectivité, auprès du Préfet, en date du 06/03/2019, courrier Préfet70 au Préfet de Région en date du 17/04/2019. Avis favorable préfet de région en date du 13/09/19. signature de l’arrêté de transformation en ORT le 3 octobre 2019",,true,false,6.15479043090958,47.6317573509342,09-12-2022 14:13,CENSORED
62 - Montreuil,CA des Deux Baies en Montreuillois,Pas-de-Calais,Hauts-de-France,62588,2. Commune PVD,Signée,2022-12-22,,0,,Commune PVD.,,false,true,1.7722067870735,50.4658829871914,05-06-2023 13:46,CENSORED
62 - Berck,CA des Deux Baies en Montreuillois,Pas-de-Calais,Hauts-de-France,62108,3. Autre,Non signée,,,0,,Ville-centre d’un EPCI avec une commune PVD,,false,false,1.58266749670948,50.4141426025754,09-12-2022 14:13,CENSORED
62 - Étaples,CA des Deux Baies en Montreuillois,Pas-de-Calais,Hauts-de-France,62318,3. Autre,Non signée,,,0,,La commune envisage d’intégrer l’ORT de la CA2BM.,,false,false,1.65077650157336,50.5233904996652,09-12-2022 14:13,CENSORED
84 - Monteux,CA des Sorgues du Comtat,Vaucluse,Provence-Alpes-Côte d'Azur,84080,2. Commune PVD,Signée,2022-12-28,,4,28-12-2026,durée jusqu'à mars 2026,Phase opérationnelle,false,true,4.9847707326122,44.0338371091369,18-04-2023 18:07,CENSORED
84 - Sorgues,CA des Sorgues du Comtat,Vaucluse,Provence-Alpes-Côte d'Azur,84129,2. Commune PVD,Signée,2022-12-28,,4,28-12-2026,durée jusqu'à mars 2026,Phase opérationnelle,false,true,4.86682687691202,44.0149658862714,18-04-2023 18:10,CENSORED
84 - Pernes-les-Fontaines,CA des Sorgues du Comtat,Vaucluse,Provence-Alpes-Côte d'Azur,84088,2. Commune PVD,Signée,2022-12-28,,4,28-12-2026,durée jusqu'à mars 2026,Phase opérationnelle,false,true,5.04022268000806,43.9962462925491,18-04-2023 18:11,CENSORED
22 - Dinan,CA Dinan Agglomération,Côtes-d'Armor,Bretagne,22050,2. Commune PVD,Signée,2022-06-28,,4,28-06-2026,,,false,true,-2.05120118417591,48.4461351034571,21-07-2025 12:58,CENSORED
22 - Broons,CA Dinan Agglomération,Côtes-d'Armor,Bretagne,22020,2. Commune PVD,Signée,2022-06-28,,4,28-06-2026,,,false,true,-2.24054952417775,48.3116789413692,21-07-2025 12:58,CENSORED
22 - Caulnes,CA Dinan Agglomération,Côtes-d'Armor,Bretagne,22032,2. Commune PVD,Signée,2022-06-28,,4,28-06-2026,,,false,true,-2.16029926127967,48.3024368337934,21-07-2025 12:58,CENSORED
22 - Matignon,CA Dinan Agglomération,Côtes-d'Armor,Bretagne,22143,2. Commune PVD,Signée,2022-06-28,,4,28-06-2026,,,false,true,-2.29033496137306,48.601939684212,21-07-2025 12:58,CENSORED
22 - Plancoët,CA Dinan Agglomération,Côtes-d'Armor,Bretagne,22172,2. Commune PVD,Signée,2022-06-28,,4,28-06-2026,,,false,true,-2.2200059042544,48.5144170845633,21-07-2025 12:58,CENSORED
22 - Lanvallay,CA Dinan Agglomération,Côtes-d'Armor,Bretagne,22118,3. Autre,Signée,2022-06-28,,4,28-06-2026,Signataire de l'ORT de Dinan agglomération,,false,false,-2.01218436851318,48.4516220907676,21-07-2025 12:58,CENSORED
22 - Quévert,CA Dinan Agglomération,Côtes-d'Armor,Bretagne,22259,3. Autre,Signée,2022-06-28,,4,28-06-2026,Signataire de l'ORT de Dinan agglomération,,false,false,-2.08603250461878,48.4632057209213,21-07-2025 12:58,CENSORED
22 - Taden,CA Dinan Agglomération,Côtes-d'Armor,Bretagne,22339,3. Autre,Signée,2022-06-28,,4,28-06-2026,Signataire de l'ORT de Dinan agglomération,,false,false,-2.05338176715216,48.4873626711987,21-07-2025 12:58,CENSORED
22 - Trélivan,CA Dinan Agglomération,Côtes-d'Armor,Bretagne,22364,3. Autre,Signée,2022-06-28,,4,28-06-2026,Signataire de l'ORT de Dinan agglomération,,false,false,-2.10723222851701,48.4303273580024,21-07-2025 13:01,CENSORED
59 - Arleux,CA Douaisis Agglo,Nord,Hauts-de-France,59015,2. Commune PVD,Non signée,,,0,,ORT commune avec Douai,,false,true,3.11261197501294,50.2817557956285,09-12-2022 14:13,CENSORED
59 - Douai,CA Douaisis Agglo,Nord,Hauts-de-France,59178,1. Commune ACV,Signée,2019-04-03,,0,,par avenant,,true,false,3.09143278617763,50.3823707082046,09-12-2022 14:13,CENSORED
83 - Les Arcs,CA Dracénie Provence Verdon Agglomération,Var,Provence-Alpes-Côte d'Azur,83004,2. Commune PVD,Signée,2023-06-20,4e trimestre 2022,5,20-06-2028,"Convention cadre PVD signée le 20/06/2023 + convention ORT ""chapeau"" signée le 20/06/2023",Phase opérationnelle,false,true,6.48962738965032,43.4508544190685,16-11-2023 08:35,CENSORED
83 - Draguignan,CA Dracénie Provence Verdon Agglomération,Var,Provence-Alpes-Côte d'Azur,83050,1. Commune ACV,Signée,2023-06-20,,5,,"AP portant homologation ACV en ORT signé le 31/12/19 - Transformée en convention ORT ""chapeau"" avec le déploiement de PVD sur le territoire et intégration de l'ORT de Draguignan dans cette convention signée le 20/06/2023",Phase opérationnelle,true,false,6.45455410497073,43.5359882496113,25-08-2025 12:02,CENSORED
83 - Le Muy,CA Dracénie Provence Verdon Agglomération,Var,Provence-Alpes-Côte d'Azur,83086,2. Commune PVD,Signée,2023-06-20,,5,20-06-2028,"Convention cadre PVD signée le 20/06/2023 + convention ORT ""chapeau"" signée le 20/06/2023",Phase opérationnelle,false,true,6.57682619159915,43.4686788247428,16-11-2023 08:36,CENSORED
83 - Lorgues,CA Dracénie Provence Verdon Agglomération,Var,Provence-Alpes-Côte d'Azur,83072,2. Commune PVD,Signée,2023-06-20,,5,20-06-2028,"Convention cadre PVD signée le 20/06/2023 + convention ORT ""chapeau"" signée le 20/06/2023",Phase opérationnelle,false,true,6.35882325035406,43.481820485192,16-11-2023 08:35,CENSORED
83 - Salernes,CA Dracénie Provence Verdon Agglomération,Var,Provence-Alpes-Côte d'Azur,83121,2. Commune PVD,Signée,2023-06-20,,5,20-06-2028,"Convention cadre PVD signée le 20/06/2023 + convention ORT ""chapeau"" signée le 20/06/2023",Phase opérationnelle,false,true,6.22891391244458,43.5615700967194,16-11-2023 08:36,CENSORED
15 - Aurillac,CA du Bassin d'Aurillac,Cantal,Auvergne-Rhône-Alpes,15014,1. Commune ACV,Signée,2023-08-29,,0,,"Signature de l'avenant de projet ACV 2 le 20 décembre 2023
",,true,false,2.44149816171355,44.9243116607869,20-12-2023 14:21,CENSORED
15 - Saint-Simon,CA du Bassin d'Aurillac,Cantal,Auvergne-Rhône-Alpes,15215,2. Commune PVD,Signée,2023-08-29,,0,,Extension de l’ORT multi-site déjà existante (ACV Aurillac et Arpajon-sur-Cère) sur 7 commues PVD de la CABA. Signature de la convention d’adhésion au programme PVD en septembre 2021,,false,true,2.49753436529995,44.9695478500574,30-08-2023 08:40,CENSORED
15 - Sansac-de-Marmiesse,CA du Bassin d'Aurillac,Cantal,Auvergne-Rhône-Alpes,15221,2. Commune PVD,Signée,2023-08-29,,0,,Extension de l’ORT multi-site déjà existante (ACV Aurillac et Arpajon-sur-Cère) sur 7 commues PVD de la CABA. Signature de la convention d’adhésion au programme PVD en septembre 2021,,false,true,2.34364721113683,44.8900464100558,30-08-2023 08:40,CENSORED
15 - Vézac,CA du Bassin d'Aurillac,Cantal,Auvergne-Rhône-Alpes,15255,2. Commune PVD,Signée,2023-08-29,,0,,Extension de l’ORT multi-site déjà existante (ACV Aurillac et Arpajon-sur-Cère) sur 7 commues PVD de la CABA. Signature de la convention d’adhésion au programme PVD en septembre 2021,,false,true,2.52295035449358,44.8957377226642,30-08-2023 08:40,CENSORED
15 - Ytrac,CA du Bassin d'Aurillac,Cantal,Auvergne-Rhône-Alpes,15267,2. Commune PVD,Signée,2023-08-29,,0,,Extension de l’ORT multi-site déjà existante (ACV Aurillac et Arpajon-sur-Cère) sur 7 commues PVD de la CABA. Signature de la convention d’adhésion au programme PVD en septembre 2021,,false,true,2.36559884745181,44.9158462981015,30-08-2023 08:40,CENSORED
15 - Arpajon-sur-Cère,CA du Bassin d'Aurillac,Cantal,Auvergne-Rhône-Alpes,15012,1. Commune ACV,Signée,2023-08-29,,0,,"Signature de l'avenant de projet ACV 2 le 20 décembre 2023
",,true,false,2.46433204775091,44.8767084377084,20-12-2023 14:21,CENSORED
15 - Jussac,CA du Bassin d'Aurillac,Cantal,Auvergne-Rhône-Alpes,15083,2. Commune PVD,Signée,2023-08-29,,0,,Extension de l’ORT multi-site déjà existante (ACV Aurillac et Arpajon-sur-Cère) sur 7 commues PVD de la CABA. Signature de la convention d’adhésion au programme PVD en septembre 2021,,false,true,2.41839974245007,44.9954571658122,30-08-2023 08:40,CENSORED
15 - Naucelles,CA du Bassin d'Aurillac,Cantal,Auvergne-Rhône-Alpes,15140,2. Commune PVD,Signée,2023-08-29,,0,,Extension de l’ORT multi-site déjà existante (ACV Aurillac et Arpajon-sur-Cère) sur 7 commues PVD de la CABA. Signature de la convention d’adhésion au programme PVD en septembre 2021,,false,true,2.42036091653264,44.9522646433481,30-08-2023 08:40,CENSORED
15 - Saint-Paul-des-Landes,CA du Bassin d'Aurillac,Cantal,Auvergne-Rhône-Alpes,15204,2. Commune PVD,Signée,2023-08-29,,0,,Extension de l’ORT multi-site déjà existante (ACV Aurillac et Arpajon-sur-Cère) sur 7 commues PVD de la CABA. Signature de la convention d’adhésion au programme PVD en septembre 2021,,false,true,2.3004098779535,44.9507186413771,30-08-2023 08:40,CENSORED
01 - Bourg-en-Bresse,CA du Bassin de Bourg-en-Bresse,Ain,Auvergne-Rhône-Alpes,01053,1. Commune ACV,Signée,2019-10-07,,0,,AP avis favorable,Phase opérationnelle,true,false,5.24563727081681,46.20504165925,09-12-2022 14:13,CENSORED
01 - Ceyzériat,CA du Bassin de Bourg-en-Bresse,Ain,Auvergne-Rhône-Alpes,01072,2. Commune PVD,,,,0,,,,false,true,5.31954430399013,46.1830386840121,08-09-2023 15:14,CENSORED
01 - Montrevel-en-Bresse,CA du Bassin de Bourg-en-Bresse,Ain,Auvergne-Rhône-Alpes,01266,2. Commune PVD,,,,0,,,,false,true,5.11199245302958,46.3251247803326,08-09-2023 16:45,CENSORED
01 - Saint-Étienne-du-Bois,CA du Bassin de Bourg-en-Bresse,Ain,Auvergne-Rhône-Alpes,01350,2. Commune PVD,,,,0,,,,false,true,5.28398512586564,46.2748976538553,08-09-2023 17:12,CENSORED
01 - Saint-Trivier-de-Courtes,CA du Bassin de Bourg-en-Bresse,Ain,Auvergne-Rhône-Alpes,01388,2. Commune PVD,,,,0,,,,false,true,5.06633293432238,46.4612023739595,08-09-2023 17:23,CENSORED
19 - Brive-la-Gaillarde,CA du Bassin de Brive,Corrèze,Nouvelle-Aquitaine,19031,1. Commune ACV,Signée,2019-11-05,,0,,convention signée,,true,false,1.51908837782574,45.1435059095825,09-12-2022 14:13,CENSORED
19 - Objat,CA du Bassin de Brive,Corrèze,Nouvelle-Aquitaine,19153,3. Autre,Signée,2019-11-05,,0,,inclus convention ACV-ORT CABB,,false,false,1.4129897430088,45.2637472166117,09-12-2022 14:13,CENSORED
19 - Allassac,CA du Bassin de Brive,Corrèze,Nouvelle-Aquitaine,19005,3. Autre,Signée,2019-11-05,,0,,inclus convention ACV-ORT CABB,,false,false,1.46891360305905,45.2556365188917,09-12-2022 14:13,CENSORED
19 - Donzenac,CA du Bassin de Brive,Corrèze,Nouvelle-Aquitaine,19072,3. Autre,Signée,2019-11-05,,0,,inclus convention ACV-ORT CABB,,false,false,1.52627494512938,45.2311031061492,09-12-2022 14:13,CENSORED
19 - Juillac,CA du Bassin de Brive,Corrèze,Nouvelle-Aquitaine,19094,3. Autre,Signée,2019-11-05,,0,,inclus convention ACV-ORT CABB,,false,false,1.29298742632414,45.3226381932294,09-12-2022 14:13,CENSORED
60 - Beauvais,CA du Beauvaisis,Oise,Hauts-de-France,60057,1. Commune ACV,Signée,2020-10-22,,0,,Le périmètre est élargi à l’ancienne maison d’arrêt.,,true,false,2.08670841216836,49.4362359304328,09-12-2022 14:13,CENSORED
60 - Auneuil,CA du Beauvaisis,Oise,Hauts-de-France,60029,2. Commune PVD,Signée,2024-03-12,,0,,,,false,true,1.98823342429858,49.3725356440468,24-04-2024 16:23,CENSORED
60 - Bresles,CA du Beauvaisis,Oise,Hauts-de-France,60103,2. Commune PVD,Signée,2024-03-12,,0,,,,false,true,2.25057550000532,49.4135849766139,24-04-2024 16:23,CENSORED
60 - Crèvecœur-le-Grand,CA du Beauvaisis,Oise,Hauts-de-France,60178,2. Commune PVD,Signée,2024-03-12,,0,,,,false,true,2.08505001282844,49.613187713794,24-04-2024 16:23,CENSORED
79 - Argentonnay,CA du Bocage Bressuirais,Deux-Sèvres,Nouvelle-Aquitaine,79013,2. Commune PVD,Signée,2023-04-14,,5,14-04-2028,"1 convention mère et 6 conventions ""filles""",,false,true,-0.419934528308713,46.9699409473221,03-04-2023 12:04,CENSORED
79 - Cerizay,CA du Bocage Bressuirais,Deux-Sèvres,Nouvelle-Aquitaine,79062,2. Commune PVD,Signée,2023-04-14,,5,14-04-2028,"1 convention mère et 6 conventions ""filles""",,false,true,-0.6718644059873,46.8223170279803,03-04-2023 12:04,CENSORED
79 - Mauléon,CA du Bocage Bressuirais,Deux-Sèvres,Nouvelle-Aquitaine,79079,2. Commune PVD,Signée,2022-12-30,,5,30-12-2027,"1 convention mère et 6 conventions ""filles""",,false,true,-0.747750414201131,46.9469614780924,03-04-2023 12:04,CENSORED
79 - Moncoutant-sur-Sèvre,CA du Bocage Bressuirais,Deux-Sèvres,Nouvelle-Aquitaine,79179,2. Commune PVD,Signée,2023-04-14,,5,14-04-2028,"1 convention mère et 6 conventions ""filles""",,false,true,-0.587562204702462,46.7089708003353,03-04-2023 12:04,CENSORED
79 - Nueil-les-Aubiers,CA du Bocage Bressuirais,Deux-Sèvres,Nouvelle-Aquitaine,79195,2. Commune PVD,Signée,2023-04-14,,5,14-04-2028,"1 convention mère et 6 conventions ""filles""",,false,true,-0.596197070757905,46.9407953837037,03-04-2023 12:04,CENSORED
79 - Bressuire,CA du Bocage Bressuirais,Deux-Sèvres,Nouvelle-Aquitaine,79049,1. Commune ACV,Signée,2023-12-18,,3,18-12-2026,"1 convention mère et 6 conventions ""filles""",,true,false,-0.479388139097362,46.8546820636602,21-07-2025 11:50,CENSORED
62 - Wimille,CA du Boulonnais,Pas-de-Calais,Hauts-de-France,62894,2. Commune PVD,Signée,2022-11-24,,0,,Commune PVD. Convention ORT existante signée par la CAB et Boulogne-sur-Mer,,false,true,1.64204929206059,50.7647421137424,05-06-2023 13:46,CENSORED
62 - Saint-Martin-Boulogne,CA du Boulonnais,Pas-de-Calais,Hauts-de-France,62758,2. Commune PVD,Signée,2022-11-24,,0,,Commune PVD. Convention ORT existante signée par la CAB et Boulogne-sur-Mer,,false,true,1.64794756257537,50.7234728231052,05-06-2023 13:46,CENSORED
62 - Le Portel,CA du Boulonnais,Pas-de-Calais,Hauts-de-France,62667,2. Commune PVD,Signée,2022-11-24,,0,,Commune PVD. Convention ORT existante signée par la CAB et Boulogne-sur-Mer,,false,true,1.57619948115645,50.7123315372005,05-06-2023 13:46,CENSORED
62 - Boulogne-sur-Mer,CA du Boulonnais,Pas-de-Calais,Hauts-de-France,62160,1. Commune ACV,Signée,2019-05-14,,0,,par arrêté préfectoral,,true,false,1.60559041602961,50.7277095402583,09-12-2022 14:13,CENSORED
59 - Avesnes-les-Aubert,CA du Caudrésis et du Catésis,Nord,Hauts-de-France,59037,2. Commune PVD,Signée,2021-07-07,,0,,ORT commune cambrésis,,false,true,3.37699664035572,50.1911806487157,25-07-2024 10:01,CENSORED
59 - Le Cateau-Cambrésis,CA du Caudrésis et du Catésis,Nord,Hauts-de-France,59136,2. Commune PVD,Signée,2021-07-07,,0,,ORT commune cambrésis,,false,true,3.5388308480239,50.0919694427705,25-07-2024 10:02,CENSORED
59 - Caudry,CA du Caudrésis et du Catésis,Nord,Hauts-de-France,59139,2. Commune PVD,Signée,2021-07-07,,0,,ORT commune cambrésis,,false,true,3.41860448226898,50.1193208781748,25-07-2024 10:02,CENSORED
59 - Saint-Benin,CA du Caudrésis et du Catésis,Nord,Hauts-de-France,59531,3. Autre,Non signée,,,0,,ORT commune aux communes de la CCPM,,false,false,3.53220208649764,50.0763699394232,09-12-2022 14:13,CENSORED
972 - Fort-de-France,CA du Centre de la Martinique,Martinique,Martinique,97209,1. Commune ACV,Signée,2022-09-20,,5,20-09-2027,Transformation ACV en ORT chapeau pour tout le territoire de l'agglomération,Phase opérationnelle,true,false,-61.0688854454152,14.640365075062,07-05-2023 02:57,CENSORED
972 - Le Lamentin,CA du Centre de la Martinique,Martinique,Martinique,97213,1. Commune ACV,Signée,2022-09-20,,5,20-09-2027,Transformation ACV en ORT chapeau pour tout le territoire de l'agglomération,Phase opérationnelle,true,false,-60.9916645788847,14.6280263615787,07-05-2023 02:57,CENSORED
972 - Saint-Joseph,CA du Centre de la Martinique,Martinique,Martinique,97224,3. Autre,Signée,2022-09-20,,5,20-09-2027,Etude de revitalisation du centre bourg de la commune réalisée à l'initiative de l'EPCI qui a permis d'établir un plan d'action utilisé pour la convention ORT,Phase opérationnelle,false,false,-61.0439077960997,14.6765821718356,07-05-2023 02:57,CENSORED
972 - Schœlcher,CA du Centre de la Martinique,Martinique,Martinique,97229,3. Autre,Signée,2022-09-20,,5,20-09-2027,Etude de revitalisation du centre bourg de la commune réalisée à l'initiative de l'EPCI qui a permis d'établir un plan d'action utilisé pour la convention ORT,Phase opérationnelle,false,false,-61.1001687346192,14.6460359176508,07-05-2023 02:57,CENSORED
973 - Cayenne,CA du Centre Littoral,Guyane,Guyane,97302,1. Commune ACV,Signée,2019-12-26,,0,,,,true,false,-52.3140064124643,4.92496496962567,09-12-2022 14:13,CENSORED
50 - Bricquebec-en-Cotentin,CA du Cotentin,Manche,Normandie,50082,2. Commune PVD,Signée,2022-10-19,,4,31-03-2026,,Phase d'étude,false,true,-1.66805631621046,49.4650136103207,04-09-2025 14:04,CENSORED
50 - Valognes,CA du Cotentin,Manche,Normandie,50615,2. Commune PVD,Signée,2022-10-19,,4,31-03-2026,,Phase d'étude,false,true,-1.47319589352399,49.5131820381497,04-09-2025 14:02,CENSORED
50 - Cherbourg-en-Cotentin,CA du Cotentin,Manche,Normandie,50129,1. Commune ACV,Signée,2019-07-26,,5,31-12-2026,,Phase opérationnelle,true,false,-1.6200738187103,49.6314790511446,04-09-2025 14:06,CENSORED
50 - Barneville-Carteret,CA du Cotentin,Manche,Normandie,50031,2. Commune PVD,Signée,2022-10-19,,4,31-03-2026,,Phase d'étude,false,true,-1.76944497953945,49.3806994698038,04-09-2025 14:02,CENSORED
50 - La Hague,CA du Cotentin,Manche,Normandie,50041,2. Commune PVD,Signée,2022-10-19,,4,31-03-2026,,Phase d'étude,false,true,-1.81436127372365,49.652512828065,04-09-2025 14:03,CENSORED
50 - Montebourg,CA du Cotentin,Manche,Normandie,50341,2. Commune PVD,Signée,2022-10-19,,4,31-03-2026,,Phase d'étude,false,true,-1.38729750838342,49.4972628687303,04-09-2025 14:03,CENSORED
50 - Les Pieux,CA du Cotentin,Manche,Normandie,50402,2. Commune PVD,Signée,2022-10-19,,4,31-03-2026,,Phase d'étude,false,true,-1.82130197501078,49.5103510184605,04-09-2025 14:03,CENSORED
50 - Port-Bail-sur-Mer,CA du Cotentin,Manche,Normandie,50412,2. Commune PVD,Signée,2022-10-19,,4,31-03-2026,,Phase d'étude,false,true,-1.68193041832821,49.3393141073768,04-09-2025 14:03,CENSORED
50 - Quettehou,CA du Cotentin,Manche,Normandie,50417,2. Commune PVD,Signée,2022-10-19,,4,31-03-2026,,Phase d'étude,false,true,-1.3223324614879,49.584970915264,04-09-2025 14:03,CENSORED
50 - Saint-Pierre-Église,CA du Cotentin,Manche,Normandie,50539,2. Commune PVD,Signée,2022-10-19,,4,31-03-2026,,Phase d'étude,false,true,-1.39756402595174,49.669742504119,04-09-2025 14:03,CENSORED
50 - Saint-Sauveur-le-Vicomte,CA du Cotentin,Manche,Normandie,50551,2. Commune PVD,Signée,2022-10-19,,4,31-03-2026,,Phase d'étude,false,true,-1.54831704834166,49.3797390197398,04-09-2025 14:04,CENSORED
50 - Saint-Vaast-la-Hougue,CA du Cotentin,Manche,Normandie,50562,2. Commune PVD,Signée,2022-10-19,,4,31-03-2026,,,false,true,-1.27256807707889,49.6005603822979,04-09-2025 14:04,CENSORED
30 - Pont-Saint-Esprit,CA du Gard Rhodanien,Gard,Occitanie,30202,2. Commune PVD,Signée,2019-07-24,,9,24-07-2028,"Même ORT que Bagnols-sur-Cèze dont la durée a été prolongée
convention cadre PVD et nouveau volet territorial de l'ORT signés le 02/08/2023",Phase opérationnelle,false,true,4.63933468456756,44.2522744318946,07-01-2025 09:49,CENSORED
30 - Bagnols-sur-Cèze,CA du Gard Rhodanien,Gard,Occitanie,30028,1. Commune ACV,Signée,2019-07-24,,9,24-07-2028,par procédure « accélérée »,Phase opérationnelle,true,false,4.62553159739632,44.1621889323924,07-01-2025 09:49,CENSORED
16 - Angoulême,CA du Grand Angoulême,Charente,Nouvelle-Aquitaine,16015,1. Commune ACV,Signée,2019-12-30,,0,,"ORT multisites avec Angoulême, Gond-Pontouvre, Ruelle-sur-Touvre et La Couronne",,true,false,0.14567084440814,45.6472494797416,09-12-2022 14:13,CENSORED
16 - Gond-Pontouvre,CA du Grand Angoulême,Charente,Nouvelle-Aquitaine,16154,3. Autre,Signée,2020-12-30,,0,,"ORT multisites avec Angoulême, Gond-Pontouvre, Ruelle-sur-Touvre et La Couronne",,false,false,0.165800330154382,45.680082656257,09-12-2022 14:13,CENSORED
16 - La Couronne,CA du Grand Angoulême,Charente,Nouvelle-Aquitaine,16113,3. Autre,Signée,2020-12-30,,0,,"ORT multisites avec Angoulême, Gond-Pontouvre, Ruelle-sur-Touvre et La Couronne",,false,false,0.109303669916033,45.6099211851191,09-12-2022 14:13,CENSORED
16 - Ruelle-sur-Touvre,CA du Grand Angoulême,Charente,Nouvelle-Aquitaine,16291,3. Autre,Signée,2020-12-30,,0,,"ORT multisites avec Angoulême, Gond-Pontouvre, Ruelle-sur-Touvre et La Couronne",,false,false,0.231143519754023,45.6835077251653,09-12-2022 14:13,CENSORED
16 - Champniers,CA du Grand Angoulême,Charente,Nouvelle-Aquitaine,16078,3. Autre,En cours,,,0,,"ORT multisites avec Angoulême, etc.",,false,false,0.196686745161275,45.7168388121214,04-10-2024 18:05,CENSORED
16 - Dignac,CA du Grand Angoulême,Charente,Nouvelle-Aquitaine,16119,3. Autre,En cours,,,0,,"ORT multisites avec Angoulême, etc.",,false,false,0.283115157605004,45.5546252426756,04-10-2024 18:06,CENSORED
16 - L'Isle-d'Espagnac,CA du Grand Angoulême,Charente,Nouvelle-Aquitaine,16166,3. Autre,En cours,,,0,,"ORT multisites avec Angoulême, etc.",,false,false,0.199184610643573,45.6639705610422,04-10-2024 18:06,CENSORED
16 - Mouthiers-sur-Boëme,CA du Grand Angoulême,Charente,Nouvelle-Aquitaine,16236,3. Autre,En cours,,,0,,"ORT multisites avec Angoulême, etc.",,false,false,0.121591455428838,45.557717847343,04-10-2024 18:07,CENSORED
16 - Roullet-Saint-Estèphe,CA du Grand Angoulême,Charente,Nouvelle-Aquitaine,16287,3. Autre,En cours,,,0,,"ORT multisites avec Angoulême, etc.",,false,false,0.0306743949113925,45.5803134074284,04-10-2024 18:08,CENSORED
84 - Avignon,CA du Grand Avignon (COGA),Vaucluse,Provence-Alpes-Côte d'Azur,84007,1. Commune ACV,Signée,2021-07-06,,5,06-07-2026,Avenant d’initialisation signé,Phase opérationnelle,true,false,4.84087793628794,43.9354925195352,18-04-2023 18:11,CENSORED
30 - Roquemaure,CA du Grand Avignon (COGA),Gard,Occitanie,30221,2. Commune PVD,Signée,2023-11-13,,5,13-11-2028,Même ORT qu'Avignon,Phase opérationnelle,false,true,4.75588860533208,44.04153349204,09-07-2024 14:20,CENSORED
46 - Cahors,CA du Grand Cahors,Lot,Occitanie,46042,1. Commune ACV,Signée,2023-12-19,,3,19-12-2026,"Avenant n°3 : ACV 2, période de validité jusqu'au 31/12/2026 pour l'ORT de Cahors",Phase opérationnelle,true,false,1.44105285210038,44.4503867626475,18-07-2025 10:21,CENSORED
73 - Chambéry,CA du Grand Chambéry,Savoie,Auvergne-Rhône-Alpes,73065,1. Commune ACV,Signée,2018-09-29,,0,,Signature de l'avenant à la convention le 30 juin 2023,Achevé ,true,false,5.90884894671763,45.5830700023961,03-07-2023 13:42,CENSORED
16 - Cognac,CA du Grand Cognac,Charente,Nouvelle-Aquitaine,16102,1. Commune ACV,Signée,2019-09-06,,0,,"ORT multisites incluant Cognac, Châteauneuf-sur-Charente, Jarnac et Segonzac",,true,false,-0.334976668970407,45.6966607350859,09-12-2022 14:13,CENSORED
16 - Châteauneuf-sur-Charente,CA du Grand Cognac,Charente,Nouvelle-Aquitaine,16090,2. Commune PVD,Signée,2019-12-30,,0,,"ORT multisites incluant Cognac, Châteauneuf-sur-Charente, Jarnac et Segonzac",,false,true,-0.0508017949695698,45.5960323572978,09-12-2022 14:13,CENSORED
16 - Segonzac,CA du Grand Cognac,Charente,Nouvelle-Aquitaine,16366,2. Commune PVD,Signée,2019-12-30,,0,,"ORT multisites incluant Cognac, Châteauneuf-sur-Charente, Jarnac et Segonzac",,false,true,-0.215596367920525,45.6182803537107,09-12-2022 14:13,CENSORED
16 - Jarnac,CA du Grand Cognac,Charente,Nouvelle-Aquitaine,16167,2. Commune PVD,Signée,2019-12-30,,0,,"ORT multisites incluant Cognac, Châteauneuf-sur-Charente, Jarnac et Segonzac",,false,true,-0.164309985857408,45.6862815181722,09-12-2022 14:13,CENSORED
40 - Dax,CA du Grand Dax,Landes,Nouvelle-Aquitaine,40088,1. Commune ACV,Signée,2019-04-25,,0,," Arrêté ORT 13/08/2019, Signature OPAH-Ru novembre 2020. Un prochain avenant probable en 2021/2022 suite changement d’équipe exécutive avec nouveau projet de territoire et des ajustements possibles du programme",,true,false,-1.05995010444209,43.7012451340061,09-12-2022 14:13,CENSORED
39 - Dole,CA du Grand Dole,Jura,Bourgogne-Franche-Comté,39198,1. Commune ACV,Signée,2019-07-15,,0,,"Homologation demandée au préfet de région. avis favorable du comité régional des financeurs sur transformation ACV en ORT, arrêté préfet de département signé",Phase opérationnelle,true,false,5.5010286870755,47.075802934214,03-03-2023 14:58,CENSORED
23 - Saint-Vaury,CA du Grand Guéret,Creuse,Nouvelle-Aquitaine,23247,2. Commune PVD,En cours,,2025,0,,Convention PVD signée le 2/09/21,,false,true,1.74902810135384,46.2003761301785,20-12-2024 14:33,CENSORED
23 - Guéret,CA du Grand Guéret,Creuse,Nouvelle-Aquitaine,23096,1. Commune ACV,Signée,2021-01-14,,0,,,,true,false,1.87127894610328,46.1625739836429,09-12-2022 14:13,CENSORED
976 - Bandraboua,CA du Grand Nord de Mayotte,Mayotte,Mayotte,97602,2. Commune PVD,,,,0,,,,false,true,45.117973881615,-12.7237086700457,08-09-2023 14:54,CENSORED
89 - Sens,CA du Grand Sénonais,Yonne,Bourgogne-Franche-Comté,89387,1. Commune ACV,Signée,2020-12-18,,5,18-12-2025,,,true,false,3.29789517495015,48.1958749654146,21-11-2023 15:57,CENSORED
55 - Verdun,CA du Grand Verdun,Meuse,Grand Est,55545,1. Commune ACV,Signée,2020-01-17,,6,17-01-2026,"
Le comité régional a a émis un avis favorable le 16/12/2019. L’avenant à la convention Action Coeur de Ville valant convention d’ORT a été signé en présence de Madame la Ministre CTRCT le 17/01/2020.
",Phase opérationnelle,true,false,5.36259708501688,49.1456826890903,12-04-2024 16:55,CENSORED
47 - Sainte-Livrade-sur-Lot,CA du Grand Villeneuvois,Lot-et-Garonne,Nouvelle-Aquitaine,47252,2. Commune PVD,Signée,2022-09-15,,5,15-09-2027,ORT découlant du programme Petites Villes de demain. Avenant à l’ORT existante comprenant la ville ACV de Villeneuve-sur-Lot,Phase opérationnelle,false,true,0.600098658448215,44.4060629917423,26-09-2023 16:28,CENSORED
47 - Villeneuve-sur-Lot,CA du Grand Villeneuvois,Lot-et-Garonne,Nouvelle-Aquitaine,47323,1. Commune ACV,Signée,2021-02-12,,5,12-02-2026,Avenant à la convention initiale signée le 15/09/22 intégrant la ville de Sainte-Livrade-sur-Lot (PVD) et introduisant de nouvelles fiches actions,Phase opérationnelle,true,false,0.742267544649849,44.4247828331961,26-09-2023 16:28,CENSORED
33 - Coutras,CA du Libournais,Gironde,Nouvelle-Aquitaine,33138,2. Commune PVD,Signée,2024-07-09,,0,,Fonctionnement à prévoir en relation avec Libourne ,,false,true,-0.106148010305529,45.0392544642266,28-04-2025 16:53,CENSORED
33 - Libourne,CA du Libournais,Gironde,Nouvelle-Aquitaine,33243,1. Commune ACV,Signée,2020-01-09,,0,,Avenant à la convention signé le 11 décembre 2020 pour MaJ du plan d’action ,,true,false,-0.23464073964669,44.9133096023749,09-12-2022 14:13,CENSORED
79 - Mauzé-sur-le-Mignon,CA du Niortais,Deux-Sèvres,Nouvelle-Aquitaine,79170,2. Commune PVD,Signée,2023-06-05,,5,05-06-2028,1 convention cadre et 2 déclinaisons opérationnelles (ACV et PVD),,false,true,-0.64385255861434,46.1925921191146,20-06-2023 09:27,CENSORED
79 - Niort,CA du Niortais,Deux-Sèvres,Nouvelle-Aquitaine,79191,1. Commune ACV,Signée,2023-10-19,,3,19-10-2026,1 convention cadre et 2 déclinaisons opérationnelles (ACV et PVD),,true,false,-0.464756664893646,46.328593552246,21-07-2025 11:54,CENSORED
971 - Lamentin,CA du Nord Basse-Terre,Guadeloupe,Guadeloupe,97115,2. Commune PVD,,,,0,,,,false,true,-61.6686113065877,16.2414375331583,08-09-2023 16:13,CENSORED
971 - Le Moule,CA du Nord Grande Terre,Guadeloupe,Guadeloupe,97117,2. Commune PVD,Signée,2023-12-21,,5,21-12-2028,,Achevé ,false,true,-61.3713867975792,16.3202703020897,25-10-2024 15:45,CENSORED
971 - Morne-à-l'Eau,CA du Nord Grande Terre,Guadeloupe,Guadeloupe,97116,2. Commune PVD,Signée,2023-12-21,,5,21-12-2028,,Achevé ,false,true,-61.4699279266876,16.3241580424986,12-01-2024 18:15,CENSORED
2A - Ajaccio,CA du Pays Ajaccien,Corse-du-Sud,Corse,2A004,1. Commune ACV,Signée,2019-07-10,,0,," homologation de la convention ACV  du 12 juillet 2018 en ORT par arrêté préfectoral du 10 juillet 2019. 
L’ORT reprend le périmètre et les objectifs de l’ACV .  Avenant de fin d’initalisation 3° trimestre 2020
",,true,false,8.70140875900653,41.93522614515,09-12-2022 14:13,CENSORED
64 - Mauléon-Licharre,CA du Pays Basque,Pyrénées-Atlantiques,Nouvelle-Aquitaine,64371,2. Commune PVD,Signée,2023-01-23,4e trimestre 2022,0,,Convention ORT signée),,false,true,-0.883758982558875,43.2169481023792,23-11-2023 10:24,CENSORED
64 - Saint-Palais,CA du Pays Basque,Pyrénées-Atlantiques,Nouvelle-Aquitaine,64493,2. Commune PVD,Signée,2023-01-23,4e trimestre 2022,0,,Convention ORT signée,,false,true,-1.03721462151261,43.3152309588866,23-11-2023 10:24,CENSORED
64 - Saint-Jean-Pied-de-Port,CA du Pays Basque,Pyrénées-Atlantiques,Nouvelle-Aquitaine,64485,2. Commune PVD,Signée,2023-01-23,4e trimestre 2022,0,,Convention ORT signée,,false,true,-1.23553417909237,43.1600009156991,23-11-2023 10:24,CENSORED
64 - Hasparren,CA du Pays Basque,Pyrénées-Atlantiques,Nouvelle-Aquitaine,64256,2. Commune PVD,Signée,2023-01-23,4e trimestre 2022,0,,Convention ORT signée,,false,true,-1.32603460461548,43.3980478419353,23-11-2023 10:24,CENSORED
64 - Hendaye,CA du Pays Basque,Pyrénées-Atlantiques,Nouvelle-Aquitaine,64260,2. Commune PVD,Signée,2023-01-23,4e trimestre 2022,0,,Convention ORT signée,,false,true,-1.76624558174764,43.3638921817124,23-11-2023 10:24,CENSORED
64 - Bayonne,CA du Pays Basque,Pyrénées-Atlantiques,Nouvelle-Aquitaine,64102,1. Commune ACV,Signée,2020-08-12,,0,,Deux périmètres d’intervention ORT identifiés à Bayonne (coeur de ville et quartier du Polo Beyris),,true,false,-1.46637780443188,43.4917229036521,09-12-2022 14:13,CENSORED
77 - Avon,CA du Pays de Fontainebleau,Seine-et-Marne,Île-de-France,77014,1. Commune ACV,Signée,2021-12-14,,0,,Avenant ACV valant ORT proposé pour avis au CRE qui a demandé une convention chapeau. En cours d’avis par les financeurs ACV.,Phase de démarrage,true,false,2.73556181067355,48.4154120051993,09-12-2022 14:13,CENSORED
77 - Fontainebleau,CA du Pays de Fontainebleau,Seine-et-Marne,Île-de-France,77186,1. Commune ACV,Signée,2021-12-14,,0,,Avenant ACV valant ORT proposé pour avis au CRE qui a demandé une convention chapeau. En cours d’avis par les financeurs ACV.,Phase de démarrage,true,false,2.68120854778116,48.4063967262087,09-12-2022 14:13,CENSORED
01 - Divonne-les-Bains,CA du Pays de Gex,Ain,Auvergne-Rhône-Alpes,01143,2. Commune PVD,Non signée,,1er trimestre 2023,0,,,Phase d'étude,false,true,6.11554448041106,46.3759536818486,09-12-2022 14:13,CENSORED
01 - Gex,CA du Pays de Gex,Ain,Auvergne-Rhône-Alpes,01173,2. Commune PVD,Non signée,,1er trimestre 2023,0,,,Phase d'étude,false,true,6.04681445385558,46.3468613579985,09-12-2022 14:13,CENSORED
06 - Saint-Vallier-de-Thiey,CA du Pays de Grasse,Alpes-Maritimes,Provence-Alpes-Côte d'Azur,06130,2. Commune PVD,Signée,2022-11-25,,0,,Convention PVD/ORT signée,Phase opérationnelle,false,true,6.85071835480112,43.6970425707278,27-02-2023 13:09,CENSORED
06 - Grasse,CA du Pays de Grasse,Alpes-Maritimes,Provence-Alpes-Côte d'Azur,06069,1. Commune ACV,Signée,2019-10-21,,0,,AP,,true,false,6.93182479763887,43.6558770162412,09-12-2022 14:13,CENSORED
29 - Daoulas,CA du Pays de Landerneau-Daoulas,Finistère,Bretagne,29043,2. Commune PVD,Signée,2021-10-22,,0,,ORT sera commune avec Landerneau,,false,true,-4.26304029910205,48.3559933660801,09-12-2022 14:13,CENSORED
29 - Landerneau,CA du Pays de Landerneau-Daoulas,Finistère,Bretagne,29103,2. Commune PVD,Signée,2021-10-22,,0,,"Sollicitation écrite du maire auprès du préfet en février 2020 pour instaurer une ORT.
rencontre téléphonique en mai pour présenter la procédure
Rencontre Etat-élus en septembre 2020",,false,true,-4.26371838565067,48.4510090287421,09-12-2022 14:13,CENSORED
02 - Laon,CA du Pays de Laon,Aisne,Hauts-de-France,02408,1. Commune ACV,Signée,2019-07-05,,0,,Homologation de l'avenant N°1 à la convention cadre ACV par arrêté préfectoral en date du 05 juillet 2019,Phase opérationnelle,true,false,3.62106279375776,49.5679294795114,04-10-2024 17:47,CENSORED
77 - Meaux,CA du Pays de Meaux,Seine-et-Marne,Île-de-France,77284,1. Commune ACV,Signée,2021-10-04,,0,,,Phase opérationnelle,true,false,2.89938081648822,48.9568815024715,09-12-2022 14:13,CENSORED
77 - Trilport,CA du Pays de Meaux,Seine-et-Marne,Île-de-France,77475,2. Commune PVD,Signée,2023-06-19,,0,,Avenant à ORT intercommunale CAPM,,false,true,2.96583612636554,48.9587277120001,23-04-2024 14:50,CENSORED
35 - Saint-Malo,CA du Pays de Saint Malo Agglomération,Ille-et-Vilaine,Bretagne,35288,1. Commune ACV,Signée,2019-10-25,,0,,Avenant ACV 2 signe le 18/12/24,,true,false,-1.97998941717446,48.6398644190342,29-05-2024 10:37,CENSORED
35 - Saint-Jouan-des-Guérets,CA du Pays de Saint Malo Agglomération,Ille-et-Vilaine,Bretagne,35284,2. Commune PVD,Signée,2023-12-18,,0,,,,false,true,-1.9647012819207,48.6043442396673,18-12-2023 11:05,CENSORED
35 - Cancale,CA du Pays de Saint Malo Agglomération,Ille-et-Vilaine,Bretagne,35049,2. Commune PVD,Signée,2023-12-18,,0,,,,false,true,-1.86625367376745,48.6823193173252,18-12-2023 11:06,CENSORED
85 - Coëx,CA du Pays de Saint-Gilles-Croix-de-Vie,Vendée,Pays de la Loire,85070,2. Commune PVD,Non signée,,,0,,convention-cadre PVD ne valant pas ORT signée le 07/10/2022,Phase opérationnelle,false,true,-1.75705383151723,46.7077392138682,07-10-2024 15:57,CENSORED
85 - Saint-Hilaire-de-Riez,CA du Pays de Saint-Gilles-Croix-de-Vie,Vendée,Pays de la Loire,85226,2. Commune PVD,Non signée,,,0,,convention-cadre PVD ne valant pas ORT signée le 07/10/2022,Phase opérationnelle,false,true,-1.96375988988156,46.7433995310231,19-10-2023 17:57,CENSORED
85 - Saint-Gilles-Croix-de-Vie,CA du Pays de Saint-Gilles-Croix-de-Vie,Vendée,Pays de la Loire,85222,2. Commune PVD,Non signée,,,0,,convention-cadre PVD ne valant pas ORT signée le 07/10/2022,Phase opérationnelle,false,true,-1.91866279682794,46.6900595308365,19-10-2023 17:57,CENSORED
62 - Aire-sur-la-Lys,CA du Pays de Saint-Omer,Pas-de-Calais,Hauts-de-France,62014,2. Commune PVD,Signée,2022-11-17,,0,,Commune PVD. Convention ORT existante signée par la CAPSO et Saint-Omer.,,false,true,2.39513341894668,50.6443297236305,02-06-2023 10:02,CENSORED
62 - Saint-Omer,CA du Pays de Saint-Omer,Pas-de-Calais,Hauts-de-France,62765,1. Commune ACV,Signée,2019-05-01,,0,,par arrêté préfectoral,,true,false,2.26415567144924,50.7676024006015,09-12-2022 14:13,CENSORED
972 - Saint-Pierre,CA du Pays Nord Martinique,Martinique,Martinique,97225,2. Commune PVD,Signée,2023-02-17,,5,17-02-2028,Convention cadre PVD qui vaut ORT,Phase opérationnelle,false,true,-61.1722682789384,14.7752586184511,16-11-2023 15:07,CENSORED
972 - Le Carbet,CA du Pays Nord Martinique,Martinique,Martinique,97204,2. Commune PVD,Signée,2023-02-17,,5,17-02-2028,Convention cadre PVD qui vaut ORT,Phase opérationnelle,false,true,-61.1644651644978,14.7109341235499,16-11-2023 15:07,CENSORED
972 - Sainte-Marie,CA du Pays Nord Martinique,Martinique,Martinique,97228,2. Commune PVD,Signée,2023-02-17,,5,17-02-2028,Convention cadre PVD qui vaut ORT,Phase opérationnelle,false,true,-61.0177855246965,14.769013596458,16-11-2023 15:07,CENSORED
972 - La Trinité,CA du Pays Nord Martinique,Martinique,Martinique,97230,2. Commune PVD,Signée,2023-03-17,,5,17-03-2028,Convention cadre PVD qui vaut ORT,Phase opérationnelle,false,true,-60.9508867020519,14.7383365785305,16-11-2023 15:07,CENSORED
